[
{"protocolSection":{"identificationModule":{"nctId":"NCT05925803","orgStudyIdInfo":{"id":"D3460C00002"},"secondaryIdInfos":[{"id":"2023-505976-31","type":"OTHER","domain":"EuCTR"}],"organization":{"fullName":"AstraZeneca","class":"INDUSTRY"},"briefTitle":"Determine Effectiveness of Anifrolumab In SYstemic Sclerosis (DAISY)","officialTitle":"A Multicenter, Randomized, Parallel-group, Double-blind,Two-arm Phase III Study to Evaluate the Safety and Efficacy of Anifrolumab Compared With Placebo in Male and Female Participants 18 to 70 Years of Age Inclusive With Systemic Sclerosis","acronym":"DAISY"},"statusModule":{"statusVerifiedDate":"2023-06","overallStatus":"NOT_YET_RECRUITING","expandedAccessInfo":{"hasExpandedAccess":false},"startDateStruct":{"date":"2023-07-13","type":"ESTIMATED"},"primaryCompletionDateStruct":{"date":"2027-12-31","type":"ESTIMATED"},"completionDateStruct":{"date":"2027-12-31","type":"ESTIMATED"},"studyFirstSubmitDate":"2023-06-02","studyFirstSubmitQcDate":"2023-06-22","studyFirstPostDateStruct":{"date":"2023-06-29","type":"ESTIMATED"},"lastUpdateSubmitDate":"2023-06-22","lastUpdatePostDateStruct":{"date":"2023-06-29","type":"ESTIMATED"}},"sponsorCollaboratorsModule":{"responsibleParty":{"type":"SPONSOR"},"leadSponsor":{"name":"AstraZeneca","class":"INDUSTRY"}},"oversightModule":{"oversightHasDmc":true,"isFdaRegulatedDrug":true,"isFdaRegulatedDevice":false},"descriptionModule":{"briefSummary":"The purpose of this study is to evaluate the efficacy and safety of treatment with subcutaneous anifrolumab versus placebo in adult participants with systemic sclerosis. The target population for this study includes patients who meet the 2013 American College of Rheumatology/European League Against Rheumatism (ACR/EULAR) classification for systemic sclerosis, either limited or diffuse cutaneous subsets, with a disease duration of less than 6 years from first non-Raynaud's phenomenon symptom.","detailedDescription":"This is a multicenter, randomized, double-blind, placebo-controlled, Phase III study to evaluate the efficacy and safety of anifrolumab in the treatment of adult participants with Systemic Sclerosis (SSc) who may be taking one or a combination of protocol-specified standard therapies. The use of one of the following standard immunosuppressant therapies is permitted at a stable dose, but not mandated: hydroxychloroquine, mycophenolate mofetil (MMF), mycophenolic acid or mycophenolate sodium (MPA), methotrexate, azathioprine, tacrolimus, and oral glucocorticoids. MMF or MPA, azathioprine, and methotrexate may be used in combination with hydroxychloroquine and/or low-dose oral glucocorticoids \\[≤ 10 mg/day\\].\n\nApproximately 306 eligible participants will be randomized in a 1:1 ratio to receive either 120 mg anifrolumab (or matching placebo) given subcutaneously once weekly for 52 weeks. The study will be stratified by the following factors:\n\n* Interstitial lung disease (ILD) (yes, no) at Week 0 (Day1);\n* MMF or MPA use (yes ,no) at Week 0 (Day 1); and\n* Disease duration, defined as the time from the first non-Raynaud's symptom attributable to SSc (\\<18 months, ≥ 18 months) at Week 0 (Day 1)\n\nStudy treatment will be administered subcutaneously via an accessorized prefilled syringe by study staff or by the participant or carer, either in the clinic or at home, with most doses being administered at home. The study consists of 4 periods: a 6-week screening period, a 52-week, double-blind, placebo-controlled period, a 52-week open-label active treatment period, and a 12-week safety follow-up period. There are a total of 16 study visits with most visits in the treatment period occurring every 8 to 12 weeks. The periods are described below:\n\n* Screening Period: This may involve one or more visits to the study site.\n* Double Blind Treatment Period: Treatment Period when participants will receive once weekly injections of anifrolumab or matching placebo. Participation will involve in-clinic study visits at Weeks 0 (Day 1), 1, 4, 8\\*, 16, 24, 36, 48 and 52. \\*The visit at Week 8 may be either by telephone or in person.\n* Open Label Treatment Period: At Week 52, all participants will be given anifrolumab 120 mg (subcutaneous) once weekly for 52 weeks (last dose at Week 103). Participation will involve in-clinic study visits at Weeks 52, 56, 64, 76. 88 and 104.\n* Safety Follow-up Period: All participants will return to the clinic for a 12-week post treatment visit. This will occur post Double Blind Treatment Period (Week 52 or Double Blind Period early discontinuation) or post Open Label Treatment Period (Week 104 or Open Label Period early discontinuation)."},"conditionsModule":{"conditions":["Systemic Sclerosis","Scleroderma"],"keywords":["Systemic Sclerosis (SSc)","Scleroderma","Anifrolumab","Limited","Diffuse","Cutaneous","Interstitial lung disease (ILD)","Autoimmune diseases","Immune system diseases","Immunosuppressants","Systemic Sclerosis interstitial lung disease (SSc- ILD)"]},"designModule":{"studyType":"INTERVENTIONAL","phases":["PHASE3"],"designInfo":{"allocation":"RANDOMIZED","interventionModel":"PARALLEL","interventionModelDescription":"Subjects will be randomized in a 1:1 ratio to either anifrolumab or matching placebo for 52 weeks (double blind treatment period). At Week 52, all patients will be treated with 120 mg Anifrolumab for 52 weeks (open label treatment period).","primaryPurpose":"TREATMENT","maskingInfo":{"masking":"QUADRUPLE","maskingDescription":"Double blind period- masking -everyone will be masked to the treatment allocation during the first 52 weeks Open label period - no masking- beginning at week 52, all participants will receive Anifrolumab for 52 weeks. During the open label period, there is no masking of study treatment, however, the treatment that participants received in the double blind period (first 52 weeks) will remain masked until the end of the study.","whoMasked":["PARTICIPANT","CARE_PROVIDER","INVESTIGATOR","OUTCOMES_ASSESSOR"]}},"enrollmentInfo":{"count":306,"type":"ESTIMATED"}},"armsInterventionsModule":{"armGroups":[{"label":"Anifrolumab (subcutaneous weekly injection)","type":"EXPERIMENTAL","description":"Anifrolumab subcutaneous injection once weekly","interventionNames":["Biological: Anifrolumab (blinded)","Biological: Anifrolumab (unblinded, open label)"]},{"label":"matched placebo control (subcutaneous weekly injection)","type":"PLACEBO_COMPARATOR","description":"matched placebo control subcutaneous injection once weekly","interventionNames":["Drug: Placebo (blinded)"]}],"interventions":[{"type":"BIOLOGICAL","name":"Anifrolumab (blinded)","description":"Anifrolumab treatment delivered subcutaneously, once weekly for 52 weeks","armGroupLabels":["Anifrolumab (subcutaneous weekly injection)"],"otherNames":["Treatment arm (blinded)"]},{"type":"DRUG","name":"Placebo (blinded)","description":"matched placebo delivered subcutaneously, once weekly for 52 weeks","armGroupLabels":["matched placebo control (subcutaneous weekly injection)"],"otherNames":["Placebo arm (blinded)"]},{"type":"BIOLOGICAL","name":"Anifrolumab (unblinded, open label)","description":"At Week 52, all patients will receive Anifrolumab subcutaneously once weekly for 52 weeks","armGroupLabels":["Anifrolumab (subcutaneous weekly injection)"],"otherNames":["Treatment arm (not blinded)"]}]},"outcomesModule":{"primaryOutcomes":[{"measure":"Number of participants responding to treatment based on the Revised Composite Response Index in Systemic Sclerosis (CRISS-25)","description":"Number of participants meeting all the criteria:\n\n* Improvement in at least 2 components (≥5% increase for percent predicted Forced Vital Capacity (FVC) and/or≥25% decrease for Modified Rodnan Skin Score (mRSS), Health Assessment Questionnaire Disability Index (HAQ-DI), Patient Global Assessment (PtGA), Clinician Global Assessment (CGA)\n* Worsening in no more than one component (≥5% decrease percent predicted FVC and/or≥25% increase for mRSS, HAQ-DI, PtGA, CGA)\n* No significant SSc-related event as defined by:\n\nNew scleroderma renal crisis New decline in percent predicted FVC≥15% in established interstitial lung disease or new percent predicted FVC below 80% predicted New onset of left ventricular failure requiring treatment New onset of pulmonary arterial hypertension requiring treatment Gastrointestinal dysmotility requiring enteral or parenteral nutrition Digital ischemia with gangrene, amputation, or hospitalization requiring treatment\n\n-Otherwise, a participant is a non-responder","timeFrame":"at Week 52"}],"secondaryOutcomes":[{"measure":"Change from baseline in mRSS","description":"Change from baseline in mRSS score. The mRSS scoring ranges from 0 (normal) to 51 (severe).","timeFrame":"at Week 52"},{"measure":"Number of patients with improvement in individual revised Composite Response Index in Systemic Sclerosis (CRISS-25)","description":"Number of participants who have improvements in the following improvement components, evaluated separately:\n\n* ≥ 5% increase in percent predicted Forced Vital Capacity (FVC)\n* ≥ 25% decrease in mRSS\n* ≥ 25% decrease in HAQ-DI\n* ≥25% decrease in PtGA\n* ≥25% decrease in CGA","timeFrame":"at Week 52"},{"measure":"Change from baseline in chest computed tomography imaging","description":"Change from baseline in quantitative interstitial lung disease score","timeFrame":"at Week 52"},{"measure":"Change from baseline in Scleroderma Skin Patient Reported Outcome","description":"Change from baseline in the Scleroderma Skin Patient Reported Outcome scores","timeFrame":"at Week 52"},{"measure":"Change from baseline in FVC","description":"1. Change from baseline in FVC (ml) in patients with interstitial lung disease\n2. Change from baseline in FVC (ml) in all patients","timeFrame":"at Week 52"},{"measure":"Change from baseline in percent predicted FVC","description":"1. Change from baseline in percent predicted FVC in patients with interstitial lung disease\n2. Change from baseline in percent predicted FVC in all patient","timeFrame":"at Week 52"},{"measure":"Anifrolumab pharmacokinetic parameters in serum","description":"Anifrolumab serum concentrations will be summarised using descriptive statistics at each visit. Due to sparse pharmacokinetic sampling, the pharmacokinetic assessment will be primarily based on observed serum trough concentrations (Ctrough)","timeFrame":"Weeks 4, 16, 24, 36, 52, 56, 76, and 104 to follow-up (max 116 weeks)"},{"measure":"Anifrolumab pharmacodynamics via changes in type I IFN 21-gene signature generated from blood","description":"Type I Interferon inducible gene signature will be assessed by a 21-gene assay in whole blood. The suppression of the type I IFN 21-gene signature will be showed as a percent of baseline through study completion, during both the double-blind treatment and open label periods.","timeFrame":"Double-blind treatment period: pre-dose (Day 1) Weeks 4, 16, 24, 52; open-label period: weeks 56, 76 and 104"},{"measure":"Prevalence of anti-drug antibodies to Anifrolumab","description":"Anti-drug antibodies and titer determination in anti-drug antibody positive participants. The presence of neutralizing anti-drug antibodies will also be tested in all anti-drug positive samples.","timeFrame":"Weeks 4, 16, 24, 36, 52, 56, 76, and 104 to follow-up (max 116 weeks)"},{"measure":"Incidence of adverse events","description":"Adverse events (non-serious, serious, and adverse event of special interest (AESI)) are assessed as variables of safety and tolerability of anifrolumab.\n\nThe AESIs are non-opportunistic serious infections, opportunistic infections, malignancy, herpes zoster, Tuberculosis (TB) (including latent TB), injection site reactions, and major adverse cardiac events.","timeFrame":"From screening to follow-up (max 126 weeks)"},{"measure":"Incidence of abnormal vital signs","description":"Change from baseline of pulse rate, blood pressure, respiration rate, and body temperature will be assessed by visit and treatment group including participants with treatment-emergent changes.","timeFrame":"From screening to follow-up (max 126 weeks)"},{"measure":"Incidence of abnormal laboratory parameters","description":"Changes from baseline in haematology, clinical chemistry and lipid variables will be assessed by visit and treatment including participants with treatment-emergent changes.","timeFrame":"From screening to follow-up (max 126 weeks)"},{"measure":"Incidence of abnormal ECG findings","description":"Observed values of heart rate, QRS duration, PR interval, RR interval and QT interval will be summarised by visit and treatment group including participants with clinically significant abnormal results.","timeFrame":"From screening to end of treatment visit (max 110 weeks)"},{"measure":"Incidence of abnormal physical exam findings","description":"Changes from baseline in weight (kilograms) will be assessed by visit and treatment and medically significant changes from the screening physical examination will be recorded as adverse events.","timeFrame":"From screening to follow-up (max 126 weeks)"},{"measure":"Number of subjects with suicidal ideation and behavior and suicide attempts via Columbia-Suicide Severity Rating Scale (C-SSRS)","description":"The C-SSRS is used to assess suicidal ideation, behavior, and suicide on a graded scale from 1 to 5. 1 indicates as low suicidal and 5 as high suicidal behavior.","timeFrame":"From screening to follow-up (max 126 weeks)"},{"measure":"Total score of Personal Health Questionnaire Depression Scale-8 (PHQD-8)","description":"PHQ-8 is an 8-item self-report scale, all items are rated on a score of 0-3, for a total range of 0-24. PHQD-8 assesses symptoms of depression over the previous 2 weeks. Higher scores indicate more depressive symptoms.","timeFrame":"From screening to follow-up (max 126 weeks)"}]},"eligibilityModule":{"eligibilityCriteria":"Key Inclusion Criteria:\n\n1. Adult patients from 18 to 70 years of age inclusive\n2. Systemic sclerosis according to 2013 ACR/EULAR classification criteria\n3. Limited or diffuse cutaneous subsets\n4. Systemic sclerosis disease duration within 6 years from first non-Raynaud's phenomenon manifestation\n5. Either HAQ-DI score ≥ 0.25 points or PtGA score ≥ 3 points\n6. mRSS \\> 10 with early disease or rapid progression as defined by the protocol\n7. mRSS ≥ 15 with disease duration ≥ 18 months and active disease as defined by the protocol\n8. Stable background therapies can be used including hydroxychloroquine, methotrexate, azathioprine, mycophenolate mofetil, mycophenolic sodium, mycophenolic acid, oral glucocorticoids or tacrolimus\n9. Women of childbearing potential with a negative urine pregnancy test\n10. Uninvolved skin at injection sites\n\nKey Exclusion Criteria:\n\n1. Anticentromere antibody seropositivity on central laboratory\n2. Severe cardiopulmonary disease as defined by the protocol\n3. History of systemic sclerosis renal crisis within past 12 months (estimated glomerular filtration rate(eGFR) \\< 45 mL/min)\n4. Overlap syndromes, systemic lupus erythematosus with anti-double-stranded deoxyribonucleic acid antibody seropositivity or anti-citrullinated protein antibodies-positive rheumatoid arthritis, or SSc mimics (eg, scleromyxedema, eosinophilic fasciitis)\n5. History of, or current, any other inflammatory diseases, eg, inflammatory bowel disease, skin disease, that, in the opinion of the investigator, could interfere with efficacy and safety assessments or require immunomodulatory therapy\n6. Evidence of moderately severe concurrent nervous system, renal, endocrine, hepatic (eg, underlying chronic liver disease \\[Child Pugh A, B, C hepatic impairment\\]), or gastrointestinal disease (eg, clinical signs of malabsorption or needing parenteral nutrition) not related to SSc, as determined by the investigator\n7. Hematopoietic stem cell transplantation or solid organ/limb transplantation\n8. Any severe case of Herpes Zoster infection as defined by the protocol\n9. Known malignancy or a history of malignancy within 5 years, with exception of excised/cured local basal or squamous cell carcinoma of the skin or carcinoma in situ of the uterine cervix\n10. Major surgery within 8 weeks prior to and/or during study enrollment\n11. Known active current or history of recurrent infections\n12. Severe cardiopulmonary disease\n13. Any condition that, in the opinion of the investigator or AstraZeneca, would interfere with the efficacy or safety evaluation of the study intervention or put participant at safety risk","healthyVolunteers":false,"sex":"ALL","minimumAge":"18 Years","maximumAge":"70 Years","stdAges":["ADULT","OLDER_ADULT"]},"contactsLocationsModule":{"centralContacts":[{"name":"AstraZeneca Clinical Study Information Center","role":"CONTACT","phone":"1-877-240-9479","email":"information.center@astrazeneca.com"}],"locations":[{"facility":"Research Site","city":"Birmingham","state":"Alabama","zip":"35205","country":"United States","geoPoint":{"lat":33.52066,"lon":-86.80249}},{"facility":"Research Site","city":"Scottsdale","state":"Arizona","zip":"85259","country":"United States","geoPoint":{"lat":33.50921,"lon":-111.89903}},{"facility":"Research Site","city":"Los Angeles","state":"California","zip":"90095","country":"United States","geoPoint":{"lat":34.05223,"lon":-118.24368}},{"facility":"Research Site","city":"San Diego","state":"California","zip":"92108","country":"United States","geoPoint":{"lat":32.71533,"lon":-117.15726}},{"facility":"Research Site","city":"North Haven","state":"Connecticut","zip":"06473","country":"United States","geoPoint":{"lat":41.39093,"lon":-72.85954}},{"facility":"Research Site","city":"Washington","state":"District of Columbia","zip":"20007","country":"United States","geoPoint":{"lat":38.89511,"lon":-77.03637}},{"facility":"Research Site","city":"Boca Raton","state":"Florida","zip":"33486","country":"United States","geoPoint":{"lat":26.3669,"lon":-80.13033}},{"facility":"Research Site","city":"Jacksonville","state":"Florida","zip":"32216","country":"United States","geoPoint":{"lat":30.33218,"lon":-81.65565}},{"facility":"Research Site","city":"Jacksonville","state":"Florida","zip":"32224","country":"United States","geoPoint":{"lat":30.33218,"lon":-81.65565}},{"facility":"Research Site","city":"Chicago","state":"Illinois","zip":"60611","country":"United States","geoPoint":{"lat":41.85003,"lon":-87.65005}},{"facility":"Research Site","city":"Kansas City","state":"Kansas","zip":"66160","country":"United States","geoPoint":{"lat":39.11417,"lon":-94.62746}},{"facility":"Research Site","city":"New Orleans","state":"Louisiana","zip":"70121","country":"United States","geoPoint":{"lat":29.95465,"lon":-90.07507}},{"facility":"Research Site","city":"Shreveport","state":"Louisiana","zip":"71103","country":"United States","geoPoint":{"lat":32.52515,"lon":-93.75018}},{"facility":"Research Site","city":"Baltimore","state":"Maryland","zip":"21224","country":"United States","geoPoint":{"lat":39.29038,"lon":-76.61219}},{"facility":"Research Site","city":"Ann Arbor","state":"Michigan","zip":"48109","country":"United States","geoPoint":{"lat":42.27756,"lon":-83.74088}},{"facility":"Research Site","city":"Minneapolis","state":"Minnesota","zip":"55455","country":"United States","geoPoint":{"lat":44.97997,"lon":-93.26384}},{"facility":"Research Site","city":"Babylon","state":"New York","zip":"11702","country":"United States","geoPoint":{"lat":40.69566,"lon":-73.32568}},{"facility":"Research Site","city":"New York","state":"New York","zip":"10032","country":"United States","geoPoint":{"lat":40.71427,"lon":-74.00597}},{"facility":"Research Site","city":"Cincinnati","state":"Ohio","zip":"45267","country":"United States","geoPoint":{"lat":39.12713,"lon":-84.51435}},{"facility":"Research Site","city":"Houston","state":"Texas","zip":"77030","country":"United States","geoPoint":{"lat":29.76328,"lon":-95.36327}},{"facility":"Research Site","city":"Graz","zip":"8036","country":"Austria","geoPoint":{"lat":47.06667,"lon":15.45}},{"facility":"Research Site","city":"Innsbruck","zip":"6020","country":"Austria","geoPoint":{"lat":47.26266,"lon":11.39454}},{"facility":"Research Site","city":"Wien","zip":"1090","country":"Austria","geoPoint":{"lat":48.20849,"lon":16.37208}},{"facility":"Research Site","city":"Brussels","zip":"1070","country":"Belgium","geoPoint":{"lat":50.85045,"lon":4.34878}},{"facility":"Research Site","city":"Gent","zip":"B-9000","country":"Belgium","geoPoint":{"lat":51.05,"lon":3.71667}},{"facility":"Research Site","city":"Leuven","zip":"3000","country":"Belgium","geoPoint":{"lat":50.87959,"lon":4.70093}},{"facility":"Research Site","city":"Calgary","state":"Alberta","zip":"T2N 4Z6","country":"Canada","geoPoint":{"lat":51.05011,"lon":-114.08529}},{"facility":"Research Site","city":"Halifax","state":"Nova Scotia","zip":"B3H 2Y9","country":"Canada","geoPoint":{"lat":44.64533,"lon":-63.57239}},{"facility":"Research Site","city":"Toronto","state":"Ontario","zip":"M5T 3L9","country":"Canada","geoPoint":{"lat":43.70011,"lon":-79.4163}},{"facility":"Research Site","city":"Montreal","state":"Quebec","zip":"H3T 1E2","country":"Canada","geoPoint":{"lat":45.50884,"lon":-73.58781}},{"facility":"Research Site","city":"Montreal","state":"Quebec","zip":"H4J 1C5","country":"Canada","geoPoint":{"lat":45.50884,"lon":-73.58781}},{"facility":"Research Site","city":"Quebec","zip":"G1V 3M7","country":"Canada","geoPoint":{"lat":46.81228,"lon":-71.21454}},{"facility":"Research Site","city":"Beijing","zip":"100191","country":"China","geoPoint":{"lat":39.9075,"lon":116.39723}},{"facility":"Research Site","city":"Beijing","zip":"CN-100730","country":"China","geoPoint":{"lat":39.9075,"lon":116.39723}},{"facility":"Research Site","city":"Chengdu","zip":"610041","country":"China","geoPoint":{"lat":30.66667,"lon":104.06667}},{"facility":"Research Site","city":"Guangzhou","zip":"510100","country":"China","geoPoint":{"lat":23.11667,"lon":113.25}},{"facility":"Research Site","city":"Guangzhou","zip":"510530","country":"China","geoPoint":{"lat":23.11667,"lon":113.25}},{"facility":"Research Site","city":"Shanghai","zip":"200032","country":"China","geoPoint":{"lat":31.22222,"lon":121.45806}},{"facility":"Research Site","city":"Shanghai","zip":"201210","country":"China","geoPoint":{"lat":31.22222,"lon":121.45806}},{"facility":"Research Site","city":"Tianjin","zip":"300052","country":"China","geoPoint":{"lat":39.14222,"lon":117.17667}},{"facility":"Research Site","city":"Wuhan","zip":"430022","country":"China","geoPoint":{"lat":30.58333,"lon":114.26667}},{"facility":"Research Site","city":"Bordeaux Cedex","zip":"33076","country":"France","geoPoint":{"lat":44.84044,"lon":-0.5805}},{"facility":"Research Site","city":"Brest Cedex","zip":"29609","country":"France","geoPoint":{"lat":48.3903,"lon":-4.48628}},{"facility":"Research Site","city":"La Tronche","zip":"38043","country":"France","geoPoint":{"lat":45.20429,"lon":5.73645}},{"facility":"Research Site","city":"Paris","zip":"75020","country":"France","geoPoint":{"lat":48.85341,"lon":2.3488}},{"facility":"Research Site","city":"Paris","zip":"75651","country":"France","geoPoint":{"lat":48.85341,"lon":2.3488}},{"facility":"Research Site","city":"Paris","zip":"75679","country":"France","geoPoint":{"lat":48.85341,"lon":2.3488}},{"facility":"Research Site","city":"Reims","zip":"51092","country":"France","geoPoint":{"lat":49.25,"lon":4.03333}},{"facility":"Research Site","city":"Rennes Cedex 9","zip":"35033","country":"France","geoPoint":{"lat":48.11198,"lon":-1.67429}},{"facility":"Research Site","city":"Strasbourg Cedex","zip":"67098","country":"France","geoPoint":{"lat":48.58392,"lon":7.74553}},{"facility":"Research Site","city":"Toulouse","zip":"31059","country":"France","geoPoint":{"lat":43.60426,"lon":1.44367}},{"facility":"Research Site","city":"Bad Bramstedt","zip":"24576","country":"Germany","geoPoint":{"lat":53.9183,"lon":9.88424}},{"facility":"Research Site","city":"Berlin","zip":"10117","country":"Germany","geoPoint":{"lat":52.52437,"lon":13.41053}},{"facility":"Research Site","city":"Düsseldorf","zip":"40225","country":"Germany","geoPoint":{"lat":51.22172,"lon":6.77616}},{"facility":"Research Site","city":"Freiburg","zip":"79106","country":"Germany","geoPoint":{"lat":47.9959,"lon":7.85222}},{"facility":"Research Site","city":"Köln","zip":"50937","country":"Germany","geoPoint":{"lat":50.93333,"lon":6.95}},{"facility":"Research Site","city":"Mainz","zip":"55131","country":"Germany","geoPoint":{"lat":49.98419,"lon":8.2791}},{"facility":"Research Site","city":"München","zip":"80336","country":"Germany","geoPoint":{"lat":48.13743,"lon":11.57549}},{"facility":"Research Site","city":"Tübingen","zip":"72076","country":"Germany","geoPoint":{"lat":48.52266,"lon":9.05222}},{"facility":"Research Site","city":"Budapest","zip":"1138","country":"Hungary","geoPoint":{"lat":47.49801,"lon":19.03991}},{"facility":"Research Site","city":"Debrecen","zip":"4032","country":"Hungary","geoPoint":{"lat":47.53333,"lon":21.63333}},{"facility":"Research Site","city":"Pécs","zip":"7632","country":"Hungary","geoPoint":{"lat":46.08333,"lon":18.23333}},{"facility":"Research Site","city":"Szeged","zip":"6725","country":"Hungary","geoPoint":{"lat":46.253,"lon":20.14824}},{"facility":"Research Site","city":"Afula","zip":"18101","country":"Israel","geoPoint":{"lat":32.60907,"lon":35.2892}},{"facility":"Research Site","city":"Haifa","zip":"31048","country":"Israel","geoPoint":{"lat":32.81841,"lon":34.9885}},{"facility":"Research Site","city":"Haifa","zip":"31096","country":"Israel","geoPoint":{"lat":32.81841,"lon":34.9885}},{"facility":"Research Site","city":"Kfar-Saba","zip":"4428164","country":"Israel","geoPoint":{"lat":32.175,"lon":34.90694}},{"facility":"Research Site","city":"Ancona","zip":"60126","country":"Italy","geoPoint":{"lat":43.5942,"lon":13.50337}},{"facility":"Research Site","city":"Brescia","zip":"25123","country":"Italy","geoPoint":{"lat":45.53558,"lon":10.21472}},{"facility":"Research Site","city":"Cona","zip":"44124","country":"Italy","geoPoint":{"lat":44.80583,"lon":11.7069}},{"facility":"Research Site","city":"Firenze","zip":"50134","country":"Italy","geoPoint":{"lat":43.77925,"lon":11.24626}},{"facility":"Research Site","city":"Milano","zip":"20122","country":"Italy","geoPoint":{"lat":45.46427,"lon":9.18951}},{"facility":"Research Site","city":"Milano","zip":"20132","country":"Italy","geoPoint":{"lat":45.46427,"lon":9.18951}},{"facility":"Research Site","city":"Monserrato","zip":"09042","country":"Italy","geoPoint":{"lat":39.25642,"lon":9.1444}},{"facility":"Research Site","city":"Napoli","zip":"80131","country":"Italy","geoPoint":{"lat":40.85216,"lon":14.26811}},{"facility":"Research Site","city":"Padova","zip":"35128","country":"Italy","geoPoint":{"lat":45.40797,"lon":11.88586}},{"facility":"Research Site","city":"Roma","zip":"00128","country":"Italy","geoPoint":{"lat":41.89193,"lon":12.51133}},{"facility":"Research Site","city":"Roma","zip":"00161","country":"Italy","geoPoint":{"lat":41.89193,"lon":12.51133}},{"facility":"Research Site","city":"Roma","zip":"00168","country":"Italy","geoPoint":{"lat":41.89193,"lon":12.51133}},{"facility":"Research Site","city":"Bunkyo-ku","zip":"113-8603","country":"Japan","geoPoint":{"lat":35.37517,"lon":139.92991}},{"facility":"Research Site","city":"Iruma-Gun","zip":"350-0495","country":"Japan"},{"facility":"Research Site","city":"Kanazawa-shi","zip":"920-8641","country":"Japan","geoPoint":{"lat":36.6,"lon":136.61667}},{"facility":"Research Site","city":"Sapporo-shi","zip":"060-8638","country":"Japan","geoPoint":{"lat":43.06667,"lon":141.35}},{"facility":"Research Site","city":"Sendai-shi","zip":"980-8574","country":"Japan","geoPoint":{"lat":38.26667,"lon":140.86667}},{"facility":"Research Site","city":"Shinjuku-ku","zip":"160-8582","country":"Japan","geoPoint":{"lat":35.2946,"lon":139.57059}},{"facility":"Research Site","city":"Shinjuku-ku","zip":"162-8666","country":"Japan","geoPoint":{"lat":35.2946,"lon":139.57059}},{"facility":"Research Site","city":"Suita-shi","zip":"565-0871","country":"Japan","geoPoint":{"lat":34.76143,"lon":135.51567}},{"facility":"Research Site","city":"Toyoake-shi","zip":"470-1192","country":"Japan","geoPoint":{"lat":35.038,"lon":136.99931}},{"facility":"Research Site","city":"Yokohama-shi","zip":"236-0004","country":"Japan","geoPoint":{"lat":35.43333,"lon":139.65}},{"facility":"Research Site","city":"Busan","zip":"49241","country":"Korea, Republic of","geoPoint":{"lat":35.10278,"lon":129.04028}},{"facility":"Research Site","city":"Seoul","zip":"04401","country":"Korea, Republic of","geoPoint":{"lat":37.566,"lon":126.9784}},{"facility":"Research Site","city":"Seoul","zip":"04763","country":"Korea, Republic of","geoPoint":{"lat":37.566,"lon":126.9784}},{"facility":"Research Site","city":"Seoul","zip":"06591","country":"Korea, Republic of","geoPoint":{"lat":37.566,"lon":126.9784}},{"facility":"Research Site","city":"Seoul","zip":"13620","country":"Korea, Republic of","geoPoint":{"lat":37.566,"lon":126.9784}},{"facility":"Research Site","city":"Cdmx","zip":"06700","country":"Mexico"},{"facility":"Research Site","city":"Chihuahua","zip":"31000","country":"Mexico","geoPoint":{"lat":28.63528,"lon":-106.08889}},{"facility":"Research Site","city":"Ciudad de Mexico","zip":"11850","country":"Mexico","geoPoint":{"lat":19.42847,"lon":-99.12766}},{"facility":"Research Site","city":"Guadalajara","zip":"44158","country":"Mexico","geoPoint":{"lat":20.66682,"lon":-103.39182}},{"facility":"Research Site","city":"Guadalajara","zip":"44650","country":"Mexico","geoPoint":{"lat":20.66682,"lon":-103.39182}},{"facility":"Research Site","city":"México","zip":"14000","country":"Mexico","geoPoint":{"lat":19.42847,"lon":-99.12766}},{"facility":"Research Site","city":"San Luis Potosi","zip":"78213","country":"Mexico","geoPoint":{"lat":22.14982,"lon":-100.97916}},{"facility":"Research Site","city":"San Luis Potosi","zip":"78290","country":"Mexico","geoPoint":{"lat":22.14982,"lon":-100.97916}},{"facility":"Research Site","city":"San Luis Potosí","zip":"78250","country":"Mexico","geoPoint":{"lat":22.14982,"lon":-100.97916}},{"facility":"Research Site","city":"Groningen","zip":"9713 GZ","country":"Netherlands","geoPoint":{"lat":53.21917,"lon":6.56667}},{"facility":"Research Site","city":"Leiden","zip":"2300 RC","country":"Netherlands","geoPoint":{"lat":52.15833,"lon":4.49306}},{"facility":"Research Site","city":"Białystok","zip":"15-276","country":"Poland","geoPoint":{"lat":53.13333,"lon":23.16433}},{"facility":"Research Site","city":"Bydgoszcz","zip":"85-168","country":"Poland","geoPoint":{"lat":53.1235,"lon":18.00762}},{"facility":"Research Site","city":"Krakow","zip":"31-637","country":"Poland","geoPoint":{"lat":50.06143,"lon":19.93658}},{"facility":"Research Site","city":"Kraków","zip":"30-002","country":"Poland","geoPoint":{"lat":50.06143,"lon":19.93658}},{"facility":"Research Site","city":"Kraków","zip":"30-721","country":"Poland","geoPoint":{"lat":50.06143,"lon":19.93658}},{"facility":"Research Site","city":"Poznań","zip":"61-545","country":"Poland","geoPoint":{"lat":52.40692,"lon":16.92993}},{"facility":"Research Site","city":"Warszawa","zip":"00-874","country":"Poland","geoPoint":{"lat":52.22977,"lon":21.01178}},{"facility":"Research Site","city":"Bucuresti","zip":"011172","country":"Romania","geoPoint":{"lat":44.42802,"lon":26.09665}},{"facility":"Research Site","city":"Cluj Napoca","zip":"400006","country":"Romania","geoPoint":{"lat":46.76667,"lon":23.6}},{"facility":"Research Site","city":"Iasi","zip":"700661","country":"Romania","geoPoint":{"lat":47.16667,"lon":27.6}},{"facility":"Research Site","city":"Barcelona","zip":"08003","country":"Spain","geoPoint":{"lat":41.38879,"lon":2.15899}},{"facility":"Research Site","city":"Barcelona","zip":"08041","country":"Spain","geoPoint":{"lat":41.38879,"lon":2.15899}},{"facility":"Research Site","city":"La Coruna","zip":"15006","country":"Spain","geoPoint":{"lat":43.37135,"lon":-8.396}},{"facility":"Research Site","city":"Madrid","zip":"28041","country":"Spain","geoPoint":{"lat":40.4165,"lon":-3.70256}},{"facility":"Research Site","city":"Malaga","zip":"29009","country":"Spain","geoPoint":{"lat":36.72016,"lon":-4.42034}},{"facility":"Research Site","city":"Valencia","zip":"46017","country":"Spain","geoPoint":{"lat":39.46975,"lon":-0.37739}},{"facility":"Research Site","city":"Valencia","zip":"46026","country":"Spain","geoPoint":{"lat":39.46975,"lon":-0.37739}},{"facility":"Research Site","city":"Vigo","zip":"36214","country":"Spain","geoPoint":{"lat":42.23282,"lon":-8.72264}},{"facility":"Research Site","city":"Ankara","zip":"06100","country":"Turkey","geoPoint":{"lat":39.91987,"lon":32.85427}},{"facility":"Research Site","city":"Antalya","zip":"07059","country":"Turkey","geoPoint":{"lat":36.90812,"lon":30.69556}},{"facility":"Research Site","city":"Merkez","zip":"23200","country":"Turkey"},{"facility":"Research Site","city":"Cannock","zip":"WS11 2XY","country":"United Kingdom","geoPoint":{"lat":52.69045,"lon":-2.03085}},{"facility":"Research Site","city":"Leeds","zip":"LS7 4SA","country":"United Kingdom","geoPoint":{"lat":53.79648,"lon":-1.54785}},{"facility":"Research Site","city":"London","zip":"NW3 2QG","country":"United Kingdom","geoPoint":{"lat":51.50853,"lon":-0.12574}},{"facility":"Research Site","city":"Manchester","zip":"M13 9WL","country":"United Kingdom","geoPoint":{"lat":53.48095,"lon":-2.23743}},{"facility":"Research Site","city":"Sheffield","zip":"S10 2JF","country":"United Kingdom","geoPoint":{"lat":53.38297,"lon":-1.4659}}],"locations_nested":[{"facility":"Research Site","city":"Birmingham","state":"Alabama","zip":"35205","country":"United States","geoPoint":{"lat":33.52066,"lon":-86.80249}},{"facility":"Research Site","city":"Scottsdale","state":"Arizona","zip":"85259","country":"United States","geoPoint":{"lat":33.50921,"lon":-111.89903}},{"facility":"Research Site","city":"Los Angeles","state":"California","zip":"90095","country":"United States","geoPoint":{"lat":34.05223,"lon":-118.24368}},{"facility":"Research Site","city":"San Diego","state":"California","zip":"92108","country":"United States","geoPoint":{"lat":32.71533,"lon":-117.15726}},{"facility":"Research Site","city":"North Haven","state":"Connecticut","zip":"06473","country":"United States","geoPoint":{"lat":41.39093,"lon":-72.85954}},{"facility":"Research Site","city":"Washington","state":"District of Columbia","zip":"20007","country":"United States","geoPoint":{"lat":38.89511,"lon":-77.03637}},{"facility":"Research Site","city":"Boca Raton","state":"Florida","zip":"33486","country":"United States","geoPoint":{"lat":26.3669,"lon":-80.13033}},{"facility":"Research Site","city":"Jacksonville","state":"Florida","zip":"32216","country":"United States","geoPoint":{"lat":30.33218,"lon":-81.65565}},{"facility":"Research Site","city":"Jacksonville","state":"Florida","zip":"32224","country":"United States","geoPoint":{"lat":30.33218,"lon":-81.65565}},{"facility":"Research Site","city":"Chicago","state":"Illinois","zip":"60611","country":"United States","geoPoint":{"lat":41.85003,"lon":-87.65005}},{"facility":"Research Site","city":"Kansas City","state":"Kansas","zip":"66160","country":"United States","geoPoint":{"lat":39.11417,"lon":-94.62746}},{"facility":"Research Site","city":"New Orleans","state":"Louisiana","zip":"70121","country":"United States","geoPoint":{"lat":29.95465,"lon":-90.07507}},{"facility":"Research Site","city":"Shreveport","state":"Louisiana","zip":"71103","country":"United States","geoPoint":{"lat":32.52515,"lon":-93.75018}},{"facility":"Research Site","city":"Baltimore","state":"Maryland","zip":"21224","country":"United States","geoPoint":{"lat":39.29038,"lon":-76.61219}},{"facility":"Research Site","city":"Ann Arbor","state":"Michigan","zip":"48109","country":"United States","geoPoint":{"lat":42.27756,"lon":-83.74088}},{"facility":"Research Site","city":"Minneapolis","state":"Minnesota","zip":"55455","country":"United States","geoPoint":{"lat":44.97997,"lon":-93.26384}},{"facility":"Research Site","city":"Babylon","state":"New York","zip":"11702","country":"United States","geoPoint":{"lat":40.69566,"lon":-73.32568}},{"facility":"Research Site","city":"New York","state":"New York","zip":"10032","country":"United States","geoPoint":{"lat":40.71427,"lon":-74.00597}},{"facility":"Research Site","city":"Cincinnati","state":"Ohio","zip":"45267","country":"United States","geoPoint":{"lat":39.12713,"lon":-84.51435}},{"facility":"Research Site","city":"Houston","state":"Texas","zip":"77030","country":"United States","geoPoint":{"lat":29.76328,"lon":-95.36327}},{"facility":"Research Site","city":"Graz","zip":"8036","country":"Austria","geoPoint":{"lat":47.06667,"lon":15.45}},{"facility":"Research Site","city":"Innsbruck","zip":"6020","country":"Austria","geoPoint":{"lat":47.26266,"lon":11.39454}},{"facility":"Research Site","city":"Wien","zip":"1090","country":"Austria","geoPoint":{"lat":48.20849,"lon":16.37208}},{"facility":"Research Site","city":"Brussels","zip":"1070","country":"Belgium","geoPoint":{"lat":50.85045,"lon":4.34878}},{"facility":"Research Site","city":"Gent","zip":"B-9000","country":"Belgium","geoPoint":{"lat":51.05,"lon":3.71667}},{"facility":"Research Site","city":"Leuven","zip":"3000","country":"Belgium","geoPoint":{"lat":50.87959,"lon":4.70093}},{"facility":"Research Site","city":"Calgary","state":"Alberta","zip":"T2N 4Z6","country":"Canada","geoPoint":{"lat":51.05011,"lon":-114.08529}},{"facility":"Research Site","city":"Halifax","state":"Nova Scotia","zip":"B3H 2Y9","country":"Canada","geoPoint":{"lat":44.64533,"lon":-63.57239}},{"facility":"Research Site","city":"Toronto","state":"Ontario","zip":"M5T 3L9","country":"Canada","geoPoint":{"lat":43.70011,"lon":-79.4163}},{"facility":"Research Site","city":"Montreal","state":"Quebec","zip":"H3T 1E2","country":"Canada","geoPoint":{"lat":45.50884,"lon":-73.58781}},{"facility":"Research Site","city":"Montreal","state":"Quebec","zip":"H4J 1C5","country":"Canada","geoPoint":{"lat":45.50884,"lon":-73.58781}},{"facility":"Research Site","city":"Quebec","zip":"G1V 3M7","country":"Canada","geoPoint":{"lat":46.81228,"lon":-71.21454}},{"facility":"Research Site","city":"Beijing","zip":"100191","country":"China","geoPoint":{"lat":39.9075,"lon":116.39723}},{"facility":"Research Site","city":"Beijing","zip":"CN-100730","country":"China","geoPoint":{"lat":39.9075,"lon":116.39723}},{"facility":"Research Site","city":"Chengdu","zip":"610041","country":"China","geoPoint":{"lat":30.66667,"lon":104.06667}},{"facility":"Research Site","city":"Guangzhou","zip":"510100","country":"China","geoPoint":{"lat":23.11667,"lon":113.25}},{"facility":"Research Site","city":"Guangzhou","zip":"510530","country":"China","geoPoint":{"lat":23.11667,"lon":113.25}},{"facility":"Research Site","city":"Shanghai","zip":"200032","country":"China","geoPoint":{"lat":31.22222,"lon":121.45806}},{"facility":"Research Site","city":"Shanghai","zip":"201210","country":"China","geoPoint":{"lat":31.22222,"lon":121.45806}},{"facility":"Research Site","city":"Tianjin","zip":"300052","country":"China","geoPoint":{"lat":39.14222,"lon":117.17667}},{"facility":"Research Site","city":"Wuhan","zip":"430022","country":"China","geoPoint":{"lat":30.58333,"lon":114.26667}},{"facility":"Research Site","city":"Bordeaux Cedex","zip":"33076","country":"France","geoPoint":{"lat":44.84044,"lon":-0.5805}},{"facility":"Research Site","city":"Brest Cedex","zip":"29609","country":"France","geoPoint":{"lat":48.3903,"lon":-4.48628}},{"facility":"Research Site","city":"La Tronche","zip":"38043","country":"France","geoPoint":{"lat":45.20429,"lon":5.73645}},{"facility":"Research Site","city":"Paris","zip":"75020","country":"France","geoPoint":{"lat":48.85341,"lon":2.3488}},{"facility":"Research Site","city":"Paris","zip":"75651","country":"France","geoPoint":{"lat":48.85341,"lon":2.3488}},{"facility":"Research Site","city":"Paris","zip":"75679","country":"France","geoPoint":{"lat":48.85341,"lon":2.3488}},{"facility":"Research Site","city":"Reims","zip":"51092","country":"France","geoPoint":{"lat":49.25,"lon":4.03333}},{"facility":"Research Site","city":"Rennes Cedex 9","zip":"35033","country":"France","geoPoint":{"lat":48.11198,"lon":-1.67429}},{"facility":"Research Site","city":"Strasbourg Cedex","zip":"67098","country":"France","geoPoint":{"lat":48.58392,"lon":7.74553}},{"facility":"Research Site","city":"Toulouse","zip":"31059","country":"France","geoPoint":{"lat":43.60426,"lon":1.44367}},{"facility":"Research Site","city":"Bad Bramstedt","zip":"24576","country":"Germany","geoPoint":{"lat":53.9183,"lon":9.88424}},{"facility":"Research Site","city":"Berlin","zip":"10117","country":"Germany","geoPoint":{"lat":52.52437,"lon":13.41053}},{"facility":"Research Site","city":"Düsseldorf","zip":"40225","country":"Germany","geoPoint":{"lat":51.22172,"lon":6.77616}},{"facility":"Research Site","city":"Freiburg","zip":"79106","country":"Germany","geoPoint":{"lat":47.9959,"lon":7.85222}},{"facility":"Research Site","city":"Köln","zip":"50937","country":"Germany","geoPoint":{"lat":50.93333,"lon":6.95}},{"facility":"Research Site","city":"Mainz","zip":"55131","country":"Germany","geoPoint":{"lat":49.98419,"lon":8.2791}},{"facility":"Research Site","city":"München","zip":"80336","country":"Germany","geoPoint":{"lat":48.13743,"lon":11.57549}},{"facility":"Research Site","city":"Tübingen","zip":"72076","country":"Germany","geoPoint":{"lat":48.52266,"lon":9.05222}},{"facility":"Research Site","city":"Budapest","zip":"1138","country":"Hungary","geoPoint":{"lat":47.49801,"lon":19.03991}},{"facility":"Research Site","city":"Debrecen","zip":"4032","country":"Hungary","geoPoint":{"lat":47.53333,"lon":21.63333}},{"facility":"Research Site","city":"Pécs","zip":"7632","country":"Hungary","geoPoint":{"lat":46.08333,"lon":18.23333}},{"facility":"Research Site","city":"Szeged","zip":"6725","country":"Hungary","geoPoint":{"lat":46.253,"lon":20.14824}},{"facility":"Research Site","city":"Afula","zip":"18101","country":"Israel","geoPoint":{"lat":32.60907,"lon":35.2892}},{"facility":"Research Site","city":"Haifa","zip":"31048","country":"Israel","geoPoint":{"lat":32.81841,"lon":34.9885}},{"facility":"Research Site","city":"Haifa","zip":"31096","country":"Israel","geoPoint":{"lat":32.81841,"lon":34.9885}},{"facility":"Research Site","city":"Kfar-Saba","zip":"4428164","country":"Israel","geoPoint":{"lat":32.175,"lon":34.90694}},{"facility":"Research Site","city":"Ancona","zip":"60126","country":"Italy","geoPoint":{"lat":43.5942,"lon":13.50337}},{"facility":"Research Site","city":"Brescia","zip":"25123","country":"Italy","geoPoint":{"lat":45.53558,"lon":10.21472}},{"facility":"Research Site","city":"Cona","zip":"44124","country":"Italy","geoPoint":{"lat":44.80583,"lon":11.7069}},{"facility":"Research Site","city":"Firenze","zip":"50134","country":"Italy","geoPoint":{"lat":43.77925,"lon":11.24626}},{"facility":"Research Site","city":"Milano","zip":"20122","country":"Italy","geoPoint":{"lat":45.46427,"lon":9.18951}},{"facility":"Research Site","city":"Milano","zip":"20132","country":"Italy","geoPoint":{"lat":45.46427,"lon":9.18951}},{"facility":"Research Site","city":"Monserrato","zip":"09042","country":"Italy","geoPoint":{"lat":39.25642,"lon":9.1444}},{"facility":"Research Site","city":"Napoli","zip":"80131","country":"Italy","geoPoint":{"lat":40.85216,"lon":14.26811}},{"facility":"Research Site","city":"Padova","zip":"35128","country":"Italy","geoPoint":{"lat":45.40797,"lon":11.88586}},{"facility":"Research Site","city":"Roma","zip":"00128","country":"Italy","geoPoint":{"lat":41.89193,"lon":12.51133}},{"facility":"Research Site","city":"Roma","zip":"00161","country":"Italy","geoPoint":{"lat":41.89193,"lon":12.51133}},{"facility":"Research Site","city":"Roma","zip":"00168","country":"Italy","geoPoint":{"lat":41.89193,"lon":12.51133}},{"facility":"Research Site","city":"Bunkyo-ku","zip":"113-8603","country":"Japan","geoPoint":{"lat":35.37517,"lon":139.92991}},{"facility":"Research Site","city":"Iruma-Gun","zip":"350-0495","country":"Japan"},{"facility":"Research Site","city":"Kanazawa-shi","zip":"920-8641","country":"Japan","geoPoint":{"lat":36.6,"lon":136.61667}},{"facility":"Research Site","city":"Sapporo-shi","zip":"060-8638","country":"Japan","geoPoint":{"lat":43.06667,"lon":141.35}},{"facility":"Research Site","city":"Sendai-shi","zip":"980-8574","country":"Japan","geoPoint":{"lat":38.26667,"lon":140.86667}},{"facility":"Research Site","city":"Shinjuku-ku","zip":"160-8582","country":"Japan","geoPoint":{"lat":35.2946,"lon":139.57059}},{"facility":"Research Site","city":"Shinjuku-ku","zip":"162-8666","country":"Japan","geoPoint":{"lat":35.2946,"lon":139.57059}},{"facility":"Research Site","city":"Suita-shi","zip":"565-0871","country":"Japan","geoPoint":{"lat":34.76143,"lon":135.51567}},{"facility":"Research Site","city":"Toyoake-shi","zip":"470-1192","country":"Japan","geoPoint":{"lat":35.038,"lon":136.99931}},{"facility":"Research Site","city":"Yokohama-shi","zip":"236-0004","country":"Japan","geoPoint":{"lat":35.43333,"lon":139.65}},{"facility":"Research Site","city":"Busan","zip":"49241","country":"Korea, Republic of","geoPoint":{"lat":35.10278,"lon":129.04028}},{"facility":"Research Site","city":"Seoul","zip":"04401","country":"Korea, Republic of","geoPoint":{"lat":37.566,"lon":126.9784}},{"facility":"Research Site","city":"Seoul","zip":"04763","country":"Korea, Republic of","geoPoint":{"lat":37.566,"lon":126.9784}},{"facility":"Research Site","city":"Seoul","zip":"06591","country":"Korea, Republic of","geoPoint":{"lat":37.566,"lon":126.9784}},{"facility":"Research Site","city":"Seoul","zip":"13620","country":"Korea, Republic of","geoPoint":{"lat":37.566,"lon":126.9784}},{"facility":"Research Site","city":"Cdmx","zip":"06700","country":"Mexico"},{"facility":"Research Site","city":"Chihuahua","zip":"31000","country":"Mexico","geoPoint":{"lat":28.63528,"lon":-106.08889}},{"facility":"Research Site","city":"Ciudad de Mexico","zip":"11850","country":"Mexico","geoPoint":{"lat":19.42847,"lon":-99.12766}},{"facility":"Research Site","city":"Guadalajara","zip":"44158","country":"Mexico","geoPoint":{"lat":20.66682,"lon":-103.39182}},{"facility":"Research Site","city":"Guadalajara","zip":"44650","country":"Mexico","geoPoint":{"lat":20.66682,"lon":-103.39182}},{"facility":"Research Site","city":"México","zip":"14000","country":"Mexico","geoPoint":{"lat":19.42847,"lon":-99.12766}},{"facility":"Research Site","city":"San Luis Potosi","zip":"78213","country":"Mexico","geoPoint":{"lat":22.14982,"lon":-100.97916}},{"facility":"Research Site","city":"San Luis Potosi","zip":"78290","country":"Mexico","geoPoint":{"lat":22.14982,"lon":-100.97916}},{"facility":"Research Site","city":"San Luis Potosí","zip":"78250","country":"Mexico","geoPoint":{"lat":22.14982,"lon":-100.97916}},{"facility":"Research Site","city":"Groningen","zip":"9713 GZ","country":"Netherlands","geoPoint":{"lat":53.21917,"lon":6.56667}},{"facility":"Research Site","city":"Leiden","zip":"2300 RC","country":"Netherlands","geoPoint":{"lat":52.15833,"lon":4.49306}},{"facility":"Research Site","city":"Białystok","zip":"15-276","country":"Poland","geoPoint":{"lat":53.13333,"lon":23.16433}},{"facility":"Research Site","city":"Bydgoszcz","zip":"85-168","country":"Poland","geoPoint":{"lat":53.1235,"lon":18.00762}},{"facility":"Research Site","city":"Krakow","zip":"31-637","country":"Poland","geoPoint":{"lat":50.06143,"lon":19.93658}},{"facility":"Research Site","city":"Kraków","zip":"30-002","country":"Poland","geoPoint":{"lat":50.06143,"lon":19.93658}},{"facility":"Research Site","city":"Kraków","zip":"30-721","country":"Poland","geoPoint":{"lat":50.06143,"lon":19.93658}},{"facility":"Research Site","city":"Poznań","zip":"61-545","country":"Poland","geoPoint":{"lat":52.40692,"lon":16.92993}},{"facility":"Research Site","city":"Warszawa","zip":"00-874","country":"Poland","geoPoint":{"lat":52.22977,"lon":21.01178}},{"facility":"Research Site","city":"Bucuresti","zip":"011172","country":"Romania","geoPoint":{"lat":44.42802,"lon":26.09665}},{"facility":"Research Site","city":"Cluj Napoca","zip":"400006","country":"Romania","geoPoint":{"lat":46.76667,"lon":23.6}},{"facility":"Research Site","city":"Iasi","zip":"700661","country":"Romania","geoPoint":{"lat":47.16667,"lon":27.6}},{"facility":"Research Site","city":"Barcelona","zip":"08003","country":"Spain","geoPoint":{"lat":41.38879,"lon":2.15899}},{"facility":"Research Site","city":"Barcelona","zip":"08041","country":"Spain","geoPoint":{"lat":41.38879,"lon":2.15899}},{"facility":"Research Site","city":"La Coruna","zip":"15006","country":"Spain","geoPoint":{"lat":43.37135,"lon":-8.396}},{"facility":"Research Site","city":"Madrid","zip":"28041","country":"Spain","geoPoint":{"lat":40.4165,"lon":-3.70256}},{"facility":"Research Site","city":"Malaga","zip":"29009","country":"Spain","geoPoint":{"lat":36.72016,"lon":-4.42034}},{"facility":"Research Site","city":"Valencia","zip":"46017","country":"Spain","geoPoint":{"lat":39.46975,"lon":-0.37739}},{"facility":"Research Site","city":"Valencia","zip":"46026","country":"Spain","geoPoint":{"lat":39.46975,"lon":-0.37739}},{"facility":"Research Site","city":"Vigo","zip":"36214","country":"Spain","geoPoint":{"lat":42.23282,"lon":-8.72264}},{"facility":"Research Site","city":"Ankara","zip":"06100","country":"Turkey","geoPoint":{"lat":39.91987,"lon":32.85427}},{"facility":"Research Site","city":"Antalya","zip":"07059","country":"Turkey","geoPoint":{"lat":36.90812,"lon":30.69556}},{"facility":"Research Site","city":"Merkez","zip":"23200","country":"Turkey"},{"facility":"Research Site","city":"Cannock","zip":"WS11 2XY","country":"United Kingdom","geoPoint":{"lat":52.69045,"lon":-2.03085}},{"facility":"Research Site","city":"Leeds","zip":"LS7 4SA","country":"United Kingdom","geoPoint":{"lat":53.79648,"lon":-1.54785}},{"facility":"Research Site","city":"London","zip":"NW3 2QG","country":"United Kingdom","geoPoint":{"lat":51.50853,"lon":-0.12574}},{"facility":"Research Site","city":"Manchester","zip":"M13 9WL","country":"United Kingdom","geoPoint":{"lat":53.48095,"lon":-2.23743}},{"facility":"Research Site","city":"Sheffield","zip":"S10 2JF","country":"United Kingdom","geoPoint":{"lat":53.38297,"lon":-1.4659}}]},"ipdSharingStatementModule":{"ipdSharing":"YES","description":"Qualified researchers can request access to anonymized individual patient-level data from AstraZeneca group of companies sponsored clinical trials via the request portal. All request will be evaluated as per the AstraZeneca disclosure commitment:\n\nhttps://astrazenecagrouptrials.pharmacm.com/ST/Submission/Disclosure.\n\nYes, indicates that AstraZeneca group of companies sponsored clinical trials are accepting requests for IPD, but this does not mean all requests will be shared.","infoTypes":["STUDY_PROTOCOL","SAP"],"timeFrame":"AstraZeneca will meet or exceed data availability as per the commitments made to the EFPIA Pharma Data Sharing Principles. The timelines vary per request and can take up to a year upon full submission of the request for analysis, decision, anonymisation and sharing of the requested data or documents. For details of our timelines, please refer to our disclosure commitment at https://astrazenecagrouptrials.pharmacm.com/ST/Submission/Disclosure.","accessCriteria":"When a request has been approved, AstraZeneca will provide access to the deidentified individual patient-level data in an approved sponsored tool. Signed Data Sharing Agreement (non-negotiable contract for data accessors) must be in place before accessing requested information. Additionally, all users will need to accept the terms and conditions of the SAS MSE to gain access. For additional details, please review the Disclosure Statements at https://astrazenecagrouptrials.pharmacm.com/ST/Submission/Disclosure.","url":"https://astrazenecagroup-dt.pharmacm.com/DT/Home"}},"derivedSection":{"miscInfoModule":{"versionHolder":"2023-06-29","modelPredictions":{"bmiLimits":{"minBmi":0.00,"maxBmi":101.00}}},"conditionBrowseModule":{"meshes":[{"id":"D000012595","term":"Scleroderma, Systemic"},{"id":"D000045743","term":"Scleroderma, Diffuse"},{"id":"D000012598","term":"Sclerosis"}],"ancestors":[{"id":"D000010335","term":"Pathologic Processes"},{"id":"D000003240","term":"Connective Tissue Diseases"},{"id":"D000012871","term":"Skin Diseases"}],"browseLeaves":[{"id":"M15102","name":"Scleroderma, Systemic","asFound":"Systemic Sclerosis","relevance":"HIGH"},{"id":"M25250","name":"Scleroderma, Diffuse","asFound":"Systemic Sclerosis","relevance":"HIGH"},{"id":"M15105","name":"Sclerosis","asFound":"Sclerosis","relevance":"HIGH"},{"id":"M10858","name":"Lung Diseases","relevance":"LOW"},{"id":"M9890","name":"Immune System Diseases","relevance":"LOW"},{"id":"M19503","name":"Lung Diseases, Interstitial","relevance":"LOW"},{"id":"M4319","name":"Autoimmune Diseases","relevance":"LOW"},{"id":"M6154","name":"Connective Tissue Diseases","relevance":"LOW"},{"id":"M15364","name":"Skin Diseases","relevance":"LOW"},{"id":"T5565","name":"Systemic Scleroderma","asFound":"Systemic Sclerosis","relevance":"HIGH"}],"browseBranches":[{"abbrev":"BC17","name":"Skin and Connective Tissue Diseases"},{"abbrev":"All","name":"All Conditions"},{"abbrev":"BC23","name":"Symptoms and General Pathology"},{"abbrev":"BC08","name":"Respiratory Tract (Lung and Bronchial) Diseases"},{"abbrev":"BC20","name":"Immune System Diseases"},{"abbrev":"Rare","name":"Rare Diseases"}]},"interventionBrowseModule":{"meshes":[{"id":"D000000911","term":"Antibodies, Monoclonal"}],"ancestors":[{"id":"D000007155","term":"Immunologic Factors"},{"id":"D000045505","term":"Physiological Effects of Drugs"}],"browseLeaves":[{"id":"M9902","name":"Immunosuppressive Agents","relevance":"LOW"},{"id":"M3920","name":"Antibodies, Monoclonal","asFound":"Enzyme Replacement Therapy","relevance":"HIGH"},{"id":"M3915","name":"Antibodies","relevance":"LOW"},{"id":"M9874","name":"Immunoglobulins","relevance":"LOW"},{"id":"M9891","name":"Immunologic Factors","relevance":"LOW"}],"browseBranches":[{"abbrev":"All","name":"All Drugs and Chemicals"}]}},"hasResults":false},
{"protocolSection":{"identificationModule":{"nctId":"NCT05923281","orgStudyIdInfo":{"id":"K-877-ER-04"},"organization":{"fullName":"Kowa Company, Ltd.","class":"INDUSTRY"},"briefTitle":"A Phase III Confirmatory Study of K-877 (Pemafibrate) in Patients With Hypercholesterolemia and Statin Intolerance","officialTitle":"A Phase III Confirmatory Study of K-877 (Pemafibrate) in Patients With Hypercholesterolemia and Statin Intolerance-Multicenter, Placebo Controlled, Randomized, Double Blind, Parallel Group Controlled Trial in Patients With Statin Intolerant Hypercholesterolemia-"},"statusModule":{"statusVerifiedDate":"2023-06","overallStatus":"RECRUITING","expandedAccessInfo":{"hasExpandedAccess":false},"startDateStruct":{"date":"2023-05-01","type":"ACTUAL"},"primaryCompletionDateStruct":{"date":"2024-10-31","type":"ESTIMATED"},"completionDateStruct":{"date":"2024-10-31","type":"ESTIMATED"},"studyFirstSubmitDate":"2023-06-20","studyFirstSubmitQcDate":"2023-06-20","studyFirstPostDateStruct":{"date":"2023-06-28","type":"ACTUAL"},"lastUpdateSubmitDate":"2023-06-20","lastUpdatePostDateStruct":{"date":"2023-06-28","type":"ACTUAL"}},"sponsorCollaboratorsModule":{"responsibleParty":{"type":"SPONSOR"},"leadSponsor":{"name":"Kowa Company, Ltd.","class":"INDUSTRY"}},"oversightModule":{"isFdaRegulatedDrug":false,"isFdaRegulatedDevice":false},"descriptionModule":{"briefSummary":"To investigate the efficacy and safety of K-877 Extended Release 0.2 mg/day or 0.4 mg/day for 12 weeks in patients with Statin Intolerant\\* Hypercholesterolemia,using placebo as a controll.\n\n\\*Statin Intolerant: Adverse events associated with statin use that cause unacceptable disturbances in the user's daily life, resulting in drug discontinuation or dose reduction."},"conditionsModule":{"conditions":["Hypercholesterolemia"]},"designModule":{"studyType":"INTERVENTIONAL","phases":["PHASE3"],"designInfo":{"allocation":"RANDOMIZED","interventionModel":"PARALLEL","primaryPurpose":"TREATMENT","maskingInfo":{"masking":"QUADRUPLE","whoMasked":["PARTICIPANT","CARE_PROVIDER","INVESTIGATOR","OUTCOMES_ASSESSOR"]}},"enrollmentInfo":{"count":60,"type":"ESTIMATED"}},"armsInterventionsModule":{"armGroups":[{"label":"Treatment A","type":"EXPERIMENTAL","description":"K-877 0.2 mg/day","interventionNames":["Drug: K-877 0.2 mg/day (once daily)"]},{"label":"Treatment B","type":"EXPERIMENTAL","description":"K-877 0.4 mg/day","interventionNames":["Drug: K-877 0.4 mg/day (once daily)"]},{"label":"Control A","type":"PLACEBO_COMPARATOR","description":"Placebo","interventionNames":["Drug: Placebo (once daily)"]}],"interventions":[{"type":"DRUG","name":"K-877 0.2 mg/day (once daily)","description":"K-877 0.2mg tablet","armGroupLabels":["Treatment A"],"otherNames":["Pemafibrate 0.2mg/day (once daily)"]},{"type":"DRUG","name":"K-877 0.4 mg/day (once daily)","description":"K-877 0.2mg tablet","armGroupLabels":["Treatment B"],"otherNames":["Pemafibrate 0.4mg/day (once daily)"]},{"type":"DRUG","name":"Placebo (once daily)","description":"Placebo tablet","armGroupLabels":["Control A"]}]},"outcomesModule":{"primaryOutcomes":[{"measure":"Percent change from baseline in LDL-C (formula F).","description":"Percent change = (measured value at each time point - baseline value) / baseline value","timeFrame":"4, 8, and 12 weeks after administration"}],"secondaryOutcomes":[{"measure":"Efficacy: % change from baseline in fasting serum LDL-C (mg/dL)(Direct)","timeFrame":"4, 8, and 12 week after administration"},{"measure":"Efficacy: % change from baseline in fasting serum HDL-C (mg/dL)","timeFrame":"4, 8, and 12 week after administration"},{"measure":"Efficacy: % change from baseline in fasting serum non HDL-C (mg/dL)","timeFrame":"4, 8, and 12 week after administration"},{"measure":"Efficacy: % change from baseline in fasting serum TG (mg/dL)","timeFrame":"4, 8, and 12 week after administration"},{"measure":"Efficacy: % change from baseline in fasting serum LDL-C（formula F）/HDL-C","timeFrame":"4, 8, and 12 week after administration"},{"measure":"Efficacy: % change from baseline in fasting serum non HDL-C/HDL-C","timeFrame":"4, 8, and 12 week after administration"}]},"eligibilityModule":{"eligibilityCriteria":"Inclusion Criteria: The person who meet all the following criteria the object to the clinical trial\n\n1. Patients had to be age 18 years or older at written informed consent\n2. Patients with statin intolerant hypercholesterolemia\n3. Patients who have laboratory records with fasting serum TG \\<= 150 mg/dL (\\<=175 mg/dL when not fasting) within 6 months prior to consent.\n4. Patients with the fasting serum TG \\<= 150 mg/dL at screening\n5. Patients who have received dietary or exercise guidance from 12 weeks or more prior to Screening\n6. Patients who apply any of the following risk category with LDL-C level (Friedewald formula) based on JAS2022 at screening\n\n   * Low risk for primary prevention: LDL-C \\>=160 mg/dL\n   * Intermediate risk for primary prevention: LDL-C \\>=140 mg/dL\n   * High risk for primary prevention: LDL-C\\>=120 mg/dL\n   * Secondary prevention: LDL-C\\>=120 mg/dL\n\nExclusion Criteria: The person who meet any of the following criteria will be excluded from the study.\n\n1. Patients who require administration of prohibited drugs during the clinical trial period after written informed consent\n2. Patients with type 1 diabetes and uncontrolled diabetes \\[HbA1c(NGSP) \\>= 10.0 % at Screening\\]\n3. Patients with uncontrolled thyroid disease\n4. Patients with undergoing LDL apheresis\n5. Patients with cirrhosis or those with biliary obstruction\n6. Patients with familial hypercholesterolemia (homozygotes)\n7. Patients with uncontrolled hypertension (SBP \\>= 160 mmHg or DBP \\>= 100 mmHg) at Screening\n8. Patients with an AST or ALT three times the upper limit at Screening\n9. Patients with an CK four times the upper limit at Screening\n10. Patients with any of the following criteria within 3 months before obtaining informed consent: myocardial infarction, severe or unstable angina pectoris, coronary angioplasty, coronary artery bypass surgery, stroke, transient ischemic attack, symptomatic carotid artery stenosis, symptomatic peripheral arterial disease, abdominal aortic aneurysm, uncontrolled severe arrhythmia and decompensated heart failure\n11. Patients who plan to undergo PCI, CABG, carotid artery or peripheral revascularization\n12. Patients with heart failure class III or higher according to NYHA cardiac function classification\n13. Patients with malignant tumor or those who are judged to have a high risk of recurrence\n14. Patients with a history of myopathy or rhabdomyolysis due to K-877 (pemafibrate)\n15. Patients with a history of hypersensitivity due to K-877 (pemafibrate)\n16. Patients with a history of serious drug allergies (anaphylactic shock, etc.)\n17. Pregnant women, lactating women, women planning to become pregnant or lactating during the study period, or pregnant women\\*2 who do not use specific contraceptive methods\\*1\n18. Patients who have collected 400 mL or more of whole blood within 16 weeks, or 200 mL or more of whole blood within 4 weeks, or blood samples (plasma and platelet components) within 2 weeks before Screening\n19. Patients with alcoholics or drug addicts\n20. Patients who participated in other clinical trials of a drug with new active ingredients within 16 weeks or a drug with an approved active ingredients within 12 weeks prior to administration and received an investigational drug other than placebo,or those who will participate in other clinical trials at the same time as the clinical trial\n21. Patients who have been determined inappropriate by the investigator, etc\n\n    * 1 Acceptable contraceptive methods: oral, implantable/injectable contraceptive hormones, mechanical products \\[intrauterine devices (IUDs) ,etc\\] or barrier methods with spermicides (pessaries, condoms, cervical caps, etc)\n    * 2 Woman of childbearing potential refers to a woman who is physiologically capable of becoming pregnant with a male partner who has not undergone contraception. However, it does not apply if the investigator confirms that any of the following criteria is met.\n\n      * Patients with hysterectomy or tubal ligation before informed consent\n      * Post-menopausal women (those who who have passed more than 1 year since their last menstrual period without other medical reasons).","healthyVolunteers":false,"sex":"ALL","minimumAge":"18 Years","stdAges":["ADULT","OLDER_ADULT"]},"contactsLocationsModule":{"centralContacts":[{"name":"Saito Ayumi","role":"CONTACT","phone":"81-3-3279-7454","email":"ctrdinfo@kowa.co.jp"}],"locations":[{"facility":"Nakayama Clinic","status":"RECRUITING","city":"Aichi","country":"Japan","geoPoint":{"lat":32.51879,"lon":130.62158}},{"facility":"Kohnodai Hospital, National Center for Global Health and Medicine","status":"RECRUITING","city":"Chiba","country":"Japan","geoPoint":{"lat":35.6,"lon":140.11667}},{"facility":"Tashiro Endocrinology Clinic","status":"RECRUITING","city":"Fukuoka","country":"Japan","geoPoint":{"lat":33.6,"lon":130.41667}},{"facility":"NTT Medical Center Sapporo","status":"RECRUITING","city":"Hokkaido","country":"Japan","geoPoint":{"lat":43.41104,"lon":142.88878}},{"facility":"Tsukuba Medical Center Foundation Tsukuba Medical Center Hospital","status":"RECRUITING","city":"Ibaraki","country":"Japan","geoPoint":{"lat":34.81641,"lon":135.56828}},{"facility":"Yokohama Minami Kyosai Hospital","status":"RECRUITING","city":"Kanagawa","country":"Japan","geoPoint":{"lat":37.58333,"lon":139.91667}},{"facility":"Medical Corporation LONGWOOD Maeda Clinic","status":"RECRUITING","city":"Osaka","country":"Japan","geoPoint":{"lat":34.69374,"lon":135.50218}},{"facility":"OCROM Clinic","status":"RECRUITING","city":"Osaka","country":"Japan","geoPoint":{"lat":34.69374,"lon":135.50218}},{"facility":"Rinku General Medical Center","status":"RECRUITING","city":"Osaka","country":"Japan","geoPoint":{"lat":34.69374,"lon":135.50218}},{"facility":"Koshigaya Municipal Hospital","status":"RECRUITING","city":"Saitama","country":"Japan","geoPoint":{"lat":35.90807,"lon":139.65657}},{"facility":"Saitama Medical University Hospital","status":"RECRUITING","city":"Saitama","country":"Japan","geoPoint":{"lat":35.90807,"lon":139.65657}},{"facility":"Affiliated CENTRAL CLINIC of Higashiyamato Hospital","status":"RECRUITING","city":"Tokyo","country":"Japan","geoPoint":{"lat":35.6895,"lon":139.69171}},{"facility":"Medical Corporation Chiseikai Tokyo Center Clinic","status":"RECRUITING","city":"Tokyo","country":"Japan","geoPoint":{"lat":35.6895,"lon":139.69171}},{"facility":"Mishuku Hospital","status":"RECRUITING","city":"Tokyo","country":"Japan","geoPoint":{"lat":35.6895,"lon":139.69171}},{"facility":"ToCROM Clinic","status":"RECRUITING","city":"Tokyo","country":"Japan","geoPoint":{"lat":35.6895,"lon":139.69171}}],"locations_nested":[{"facility":"Nakayama Clinic","status":"RECRUITING","city":"Aichi","country":"Japan","geoPoint":{"lat":32.51879,"lon":130.62158}},{"facility":"Kohnodai Hospital, National Center for Global Health and Medicine","status":"RECRUITING","city":"Chiba","country":"Japan","geoPoint":{"lat":35.6,"lon":140.11667}},{"facility":"Tashiro Endocrinology Clinic","status":"RECRUITING","city":"Fukuoka","country":"Japan","geoPoint":{"lat":33.6,"lon":130.41667}},{"facility":"NTT Medical Center Sapporo","status":"RECRUITING","city":"Hokkaido","country":"Japan","geoPoint":{"lat":43.41104,"lon":142.88878}},{"facility":"Tsukuba Medical Center Foundation Tsukuba Medical Center Hospital","status":"RECRUITING","city":"Ibaraki","country":"Japan","geoPoint":{"lat":34.81641,"lon":135.56828}},{"facility":"Yokohama Minami Kyosai Hospital","status":"RECRUITING","city":"Kanagawa","country":"Japan","geoPoint":{"lat":37.58333,"lon":139.91667}},{"facility":"Medical Corporation LONGWOOD Maeda Clinic","status":"RECRUITING","city":"Osaka","country":"Japan","geoPoint":{"lat":34.69374,"lon":135.50218}},{"facility":"OCROM Clinic","status":"RECRUITING","city":"Osaka","country":"Japan","geoPoint":{"lat":34.69374,"lon":135.50218}},{"facility":"Rinku General Medical Center","status":"RECRUITING","city":"Osaka","country":"Japan","geoPoint":{"lat":34.69374,"lon":135.50218}},{"facility":"Koshigaya Municipal Hospital","status":"RECRUITING","city":"Saitama","country":"Japan","geoPoint":{"lat":35.90807,"lon":139.65657}},{"facility":"Saitama Medical University Hospital","status":"RECRUITING","city":"Saitama","country":"Japan","geoPoint":{"lat":35.90807,"lon":139.65657}},{"facility":"Affiliated CENTRAL CLINIC of Higashiyamato Hospital","status":"RECRUITING","city":"Tokyo","country":"Japan","geoPoint":{"lat":35.6895,"lon":139.69171}},{"facility":"Medical Corporation Chiseikai Tokyo Center Clinic","status":"RECRUITING","city":"Tokyo","country":"Japan","geoPoint":{"lat":35.6895,"lon":139.69171}},{"facility":"Mishuku Hospital","status":"RECRUITING","city":"Tokyo","country":"Japan","geoPoint":{"lat":35.6895,"lon":139.69171}},{"facility":"ToCROM Clinic","status":"RECRUITING","city":"Tokyo","country":"Japan","geoPoint":{"lat":35.6895,"lon":139.69171}}]}},"derivedSection":{"miscInfoModule":{"versionHolder":"2023-06-29","modelPredictions":{"bmiLimits":{"minBmi":0.00,"maxBmi":101.00}}},"conditionBrowseModule":{"meshes":[{"id":"D000006937","term":"Hypercholesterolemia"}],"ancestors":[{"id":"D000006949","term":"Hyperlipidemias"},{"id":"D000050171","term":"Dyslipidemias"},{"id":"D000052439","term":"Lipid Metabolism Disorders"},{"id":"D000008659","term":"Metabolic Diseases"}],"browseLeaves":[{"id":"M9678","name":"Hypercholesterolemia","asFound":"Hypercholesterolemia","relevance":"HIGH"},{"id":"M9690","name":"Hyperlipidemias","relevance":"LOW"},{"id":"M9692","name":"Hyperlipoproteinemias","relevance":"LOW"},{"id":"M25871","name":"Dyslipidemias","relevance":"LOW"},{"id":"M11329","name":"Metabolic Diseases","relevance":"LOW"},{"id":"M26719","name":"Lipid Metabolism Disorders","relevance":"LOW"}],"browseBranches":[{"abbrev":"BC18","name":"Nutritional and Metabolic Diseases"},{"abbrev":"All","name":"All Conditions"}]},"interventionBrowseModule":{"browseLeaves":[{"id":"M20845","name":"Hydroxymethylglutaryl-CoA Reductase Inhibitors","relevance":"LOW"}],"browseBranches":[{"abbrev":"Lipd","name":"Lipid Regulating Agents"},{"abbrev":"All","name":"All Drugs and Chemicals"}]}},"hasResults":false},
{"protocolSection":{"identificationModule":{"nctId":"NCT05923112","orgStudyIdInfo":{"id":"B1931024"},"organization":{"fullName":"Pfizer","class":"INDUSTRY"},"briefTitle":"BESPONSA Injection 1 mg Special Investigation","officialTitle":"BESPONSA® INJECTION 1 MG SPECIAL INVESTIGATION"},"statusModule":{"statusVerifiedDate":"2023-06","overallStatus":"ACTIVE_NOT_RECRUITING","expandedAccessInfo":{"hasExpandedAccess":false},"startDateStruct":{"date":"2018-07-02","type":"ACTUAL"},"primaryCompletionDateStruct":{"date":"2024-05-10","type":"ESTIMATED"},"completionDateStruct":{"date":"2024-05-10","type":"ESTIMATED"},"studyFirstSubmitDate":"2023-06-20","studyFirstSubmitQcDate":"2023-06-20","studyFirstPostDateStruct":{"date":"2023-06-28","type":"ACTUAL"},"lastUpdateSubmitDate":"2023-06-20","lastUpdatePostDateStruct":{"date":"2023-06-28","type":"ACTUAL"}},"sponsorCollaboratorsModule":{"responsibleParty":{"type":"SPONSOR"},"leadSponsor":{"name":"Pfizer","class":"INDUSTRY"}},"oversightModule":{},"descriptionModule":{"briefSummary":"The purpose of this study is to learn about the safety and effectiveness of BESPONSA. BESPONSA is approved for treatment of relapsed or refractory CD22-positive acute lymphocytic leukemia.\n\nRegistration criteria for this study is all patients who starting BESPONSA from its launch to the market to April 30, 2020.\n\nAll patients in this study will receive BESPONSA according to the prescriptions.\n\nPatients will be followed up as follow.\n\n* 52 weeks for patients who did not have a HSCT (Hematopoietic Stem Cell Transplant) within 52 weeks after starting BESPONSA.\n* Up to 52 weeks after a HSCT for patients who had a HSCT within 52 weeks after starting BESPONSA."},"conditionsModule":{"conditions":["Acute Lymphocytic Leukemia"],"keywords":["Drug use investigation in Japan"]},"designModule":{"studyType":"OBSERVATIONAL","patientRegistry":false,"designInfo":{"observationalModel":"CASE_ONLY","timePerspective":"PROSPECTIVE"},"enrollmentInfo":{"count":200,"type":"ESTIMATED"}},"outcomesModule":{"primaryOutcomes":[{"measure":"The incidence of adverse drug reactions","description":"The observation period will be 52 weeks for patients not undergoing HSCT within 52 weeks after the start of BESPONSA treatment or until 52 weeks following HSCT for patients undergoing it within 52 weeks after the start of BESPONSA treatment.","timeFrame":"Up to 52 weeks"}]},"eligibilityModule":{"eligibilityCriteria":"Inclusion Criteria:\n\n* All patients prescribed BESPONSA\n\nExclusion Criteria:\n\n* None","healthyVolunteers":false,"sex":"ALL","minimumAge":"0 Years","stdAges":["CHILD","ADULT","OLDER_ADULT"],"studyPopulation":"All patients who received BESPONSA","samplingMethod":"PROBABILITY_SAMPLE"},"contactsLocationsModule":{"overallOfficials":[{"name":"Pfizer CT.gov Call Center","affiliation":"Pfizer","role":"STUDY_DIRECTOR"}],"locations":[{"facility":"Pfizer","city":"Tokyo","country":"Japan","geoPoint":{"lat":35.6895,"lon":139.69171}}],"locations_nested":[{"facility":"Pfizer","city":"Tokyo","country":"Japan","geoPoint":{"lat":35.6895,"lon":139.69171}}]},"referencesModule":{"seeAlsoLinks":[{"label":"To obtain contact information for a study center near you, click here.","url":"https://pmiform.com/clinical-trial-info-request?StudyID=B1931024"}]},"ipdSharingStatementModule":{"ipdSharing":"NO","description":"Pfizer will provide access to individual de-identified participant data and related study documents (e.g. protocol, Statistical Analysis Plan (SAP), Clinical Study Report (CSR)) upon request from qualified researchers, and subject to certain criteria, conditions, and exceptions. Further details on Pfizer's data sharing criteria and process for requesting access can be found at: https://www.pfizer.com/science/clinical_trials/trial_data_and_results/data_requests."}},"derivedSection":{"miscInfoModule":{"versionHolder":"2023-06-29","modelPredictions":{"bmiLimits":{"minBmi":0.00,"maxBmi":101.00}}},"conditionBrowseModule":{"meshes":[{"id":"D000054198","term":"Precursor Cell Lymphoblastic Leukemia-Lymphoma"}],"ancestors":[{"id":"D000007945","term":"Leukemia, Lymphoid"},{"id":"D000007938","term":"Leukemia"},{"id":"D000009370","term":"Neoplasms by Histologic Type"},{"id":"D000009369","term":"Neoplasms"},{"id":"D000008232","term":"Lymphoproliferative Disorders"},{"id":"D000008206","term":"Lymphatic Diseases"},{"id":"D000007160","term":"Immunoproliferative Disorders"},{"id":"D000007154","term":"Immune System Diseases"}],"browseLeaves":[{"id":"M10635","name":"Leukemia","relevance":"LOW"},{"id":"M27275","name":"Precursor Cell Lymphoblastic Leukemia-Lymphoma","asFound":"Acute Lymphocytic Leukemia","relevance":"HIGH"},{"id":"M10641","name":"Leukemia, Lymphoid","relevance":"LOW"},{"id":"M10910","name":"Lymphoma","relevance":"LOW"},{"id":"M12005","name":"Neoplasms by Histologic Type","relevance":"LOW"},{"id":"M10915","name":"Lymphoproliferative Disorders","relevance":"LOW"},{"id":"M10893","name":"Lymphatic Diseases","relevance":"LOW"},{"id":"M9896","name":"Immunoproliferative Disorders","relevance":"LOW"},{"id":"M9890","name":"Immune System Diseases","relevance":"LOW"},{"id":"T170","name":"Acute Graft Versus Host Disease","relevance":"LOW"},{"id":"T175","name":"Acute Lymphoblastic Leukemia","asFound":"Acute Lymphocytic Leukemia","relevance":"HIGH"},{"id":"T3533","name":"Lymphoblastic Lymphoma","asFound":"Acute Lymphocytic Leukemia","relevance":"HIGH"},{"id":"T3543","name":"Lymphosarcoma","relevance":"LOW"}],"browseBranches":[{"abbrev":"BC04","name":"Neoplasms"},{"abbrev":"All","name":"All Conditions"},{"abbrev":"BC15","name":"Blood and Lymph Conditions"},{"abbrev":"BC20","name":"Immune System Diseases"},{"abbrev":"Rare","name":"Rare Diseases"}]},"interventionBrowseModule":{"browseLeaves":[{"id":"M2103","name":"Inotuzumab Ozogamicin","relevance":"LOW"}],"browseBranches":[{"abbrev":"ANeo","name":"Antineoplastic Agents"},{"abbrev":"All","name":"All Drugs and Chemicals"}]}},"hasResults":false},
{"protocolSection":{"identificationModule":{"nctId":"NCT05921903","orgStudyIdInfo":{"id":"219900"},"secondaryIdInfos":[{"id":"2023-503951-81-00","type":"OTHER","domain":"EU CT number"}],"organization":{"fullName":"GlaxoSmithKline","class":"INDUSTRY"},"briefTitle":"A Study on the Immune Response and Safety of an RSV Vaccine When Given to Adults 50 Years of Age and Above Who Received Lung or Kidney Transplant and Are at an Increased Risk of Respiratory Syncytial Virus Lower Respiratory Tract Disease and Compared to Healthy Adults 50 Years of Age and Above","officialTitle":"A Phase 2b, Randomized, Controlled, Open-label Study to Evaluate the Immune Response and Safety of the RSVPreF3 OA Investigational Vaccine in Adults (≥50 Years of Age) When Administered to Lung and Renal Transplant Recipients Comparing 1 Versus 2 Doses and Compared to Healthy Controls (≥50 Years of Age) Receiving 1 Dose","acronym":"RSV OA=ADJ-023"},"statusModule":{"statusVerifiedDate":"2023-06","overallStatus":"NOT_YET_RECRUITING","expandedAccessInfo":{"hasExpandedAccess":false},"startDateStruct":{"date":"2023-07-31","type":"ESTIMATED"},"primaryCompletionDateStruct":{"date":"2024-09-09","type":"ESTIMATED"},"completionDateStruct":{"date":"2025-08-13","type":"ESTIMATED"},"studyFirstSubmitDate":"2023-06-16","studyFirstSubmitQcDate":"2023-06-16","studyFirstPostDateStruct":{"date":"2023-06-27","type":"ACTUAL"},"lastUpdateSubmitDate":"2023-06-16","lastUpdatePostDateStruct":{"date":"2023-06-27","type":"ACTUAL"}},"sponsorCollaboratorsModule":{"responsibleParty":{"type":"SPONSOR"},"leadSponsor":{"name":"GlaxoSmithKline","class":"INDUSTRY"}},"oversightModule":{"oversightHasDmc":true,"isFdaRegulatedDrug":true,"isFdaRegulatedDevice":false,"isUsExport":false},"descriptionModule":{"briefSummary":"The purpose of this study is to evaluate the immunogenicity, safety, and reactogenicity of the RSVPreF3 OA investigational vaccine in an immunocompromised (lung and renal transplant recipients) population and assess whether a second dose of the vaccine increases the immune response. The aim of the study is to prevent severe Respiratory Syncytial Virus (RSV) Lower Respiratory Tract Disease (LRTD)."},"conditionsModule":{"conditions":["Respiratory Syncytial Virus Infections"],"keywords":["Respiratory syncytial virus","Vaccine","Immunogenicity","Safety"]},"designModule":{"studyType":"INTERVENTIONAL","phases":["PHASE2"],"designInfo":{"allocation":"RANDOMIZED","interventionModel":"PARALLEL","primaryPurpose":"PREVENTION","maskingInfo":{"masking":"NONE","maskingDescription":"This study is an open label study. Potential bias will be reduced by central randomization."}},"enrollmentInfo":{"count":375,"type":"ESTIMATED"}},"armsInterventionsModule":{"armGroups":[{"label":"RSV_IC_1 group","type":"EXPERIMENTAL","description":"Immunocompromised (IC) patients receiving 1 dose of RSVPreF3 OA investigational vaccine at Visit 1 (Day 1).","interventionNames":["Biological: RSVPreF3 OA Investigational Vaccine"]},{"label":"RSV_IC_2 group","type":"EXPERIMENTAL","description":"Immunocompromised (IC) patients receiving 2 doses of RSVPreF3 OA investigational vaccine at Visit 1 (Day 1) and Visit 3 (Visit 1 + 30-60 days).","interventionNames":["Biological: RSVPreF3 OA Investigational Vaccine"]},{"label":"RSV_HA group","type":"ACTIVE_COMPARATOR","description":"Healthy participants receiving 1 dose of RSVPreF3 OA investigational vaccine at Visit 1 (Day 1).","interventionNames":["Biological: RSVPreF3 OA Investigational Vaccine"]}],"interventions":[{"type":"BIOLOGICAL","name":"RSVPreF3 OA Investigational Vaccine","description":"The investigational vaccine will be administered intramuscularly as 1 dose to RSV_IC_1 and RSV_HA groups, and 2 doses to RSV_IC_2 group).","armGroupLabels":["RSV_HA group","RSV_IC_1 group","RSV_IC_2 group"]}]},"outcomesModule":{"primaryOutcomes":[{"measure":"RSV-A serum neutralizing titers expressed as mean geometric increase (MGI) post Dose 2 over post-Dose 1","description":"The analysis is performed on the renal and lung SOT patients in the 2-dose group.","timeFrame":"At Visit 4 (Visit 3 + 30-42 days) versus Visit 3 (Day 30-60)"},{"measure":"RSV-B serum neutralizing titers expressed as MGI post-Dose 2 over post-Dose 1","description":"The analysis is performed on the renal and lung SOT patients in the 2-dose group.","timeFrame":"At Visit 4 (Visit 3 + 30-42 days) versus Visit 3 (Day 30-60)"}],"secondaryOutcomes":[{"measure":"RSV-A serum neutralizing titers expressed as geometric mean titers (GMT)","description":"RSV-A serum neutralizing titers expressed as group GMT ratio RSV_HA group over RSV_IC group (pooled RSV_IC_1 and RSV_IC_2 groups) is assessed at Visit 2 (in a subset of participants) and Visit 3, and RSV_IC_2 over RSV_IC_1, RSV_HA over RSV_IC_1, and RSV_HA over RSV_IC_2) at Visit 4, Visit 5 and Visit 6.","timeFrame":"At Day 1 (dose 1), at Visit 2 (7-14 days post-dose 1), Visit 3 (30-60 days post dose-1, dose 2 for the RSV_IC_2 group), Visit 4 (Visit 3+30-42 days), Visit 5 (180-210 days post last-dose) and at Visit 6 (350-380 days post last dose)"},{"measure":"RSV-B serum neutralizing titers expressed as geometric mean titers (GMT)","description":"RSV-B serum neutralizing titers expressed as group GMT ratio RSV_HA group over RSV_IC group (pooled RSV_IC_1 and RSV_IC_2 groups) is assessed at Visit 2 (in a subset of participants) and Visit 3, and RSV_IC_2 over RSV_IC_1, RSV_HA over RSV_IC_1, and RSV_HA over RSV_IC_2) at Visit 4, Visit 5 and Visit 6.","timeFrame":"At Day 1 (dose 1), at Visit 2 (7-14 days post-dose 1), Visit 3 (30-60 days post dose-1, dose 2 for the RSV_IC_2 group), Visit 4 (Visit 3+30-42 days), Visit 5 (180-210 days post last-dose) and at Visit 6 (350-380 days post last dose)"},{"measure":"Cell Mediated Immunity (CMI) response in a subset of participants","description":"CMI response is expressed as group geometric mean of the frequency of RSVPreF3-specific CD4+ and/or CD8+ T cells expressing at least 2 activation markers including at least one cytokine among CD40L, 4-1BB, IL-2, TNF-α, IFN-γ, IL- 13 and IL-17. The CMI is measured in a subgroup consisting of participants with renal and lung SOT (from 1-dose group and 2-dose group) and healthy participants.","timeFrame":"At Day 1 (dose 1), at Visit 2 (7-14 days post-dose 1), Visit 3 (30-60 days post dose-1, dose 2 for the RSV_IC_2 group), Visit 4 (Visit 3+30-42 days), Visit 5 (180-210 days post last-dose) and at Visit 6 (350-380 days post last dose)"},{"measure":"Percentage of participants with solicited administration site events","description":"Assessed solicited administration site events included pain, redness and swelling, at the injection site.","timeFrame":"Within 7 days post-study intervention administration (i.e., the day of vaccination and 6 subsequent days, vaccine administered on Day 1 for all groups and Day 30-60 for RSV_IC_2)"},{"measure":"Percentage of participants with solicited administration site events and solicited systemic events","description":"Assessed solicited systemic events included fever, myalgia, arthralgia, headache, and fatigue.","timeFrame":"Within 7 days post-study intervention administration (i.e., the day of vaccination and 6 subsequent days, vaccine administered on Day 1 for all groups and Day 30-60 for RSV_IC_2)"},{"measure":"Percentage of participants with unsolicited adverse events (AEs)","description":"An unsolicited AE is an AE that was not included in the list of solicited events. Also, any 'solicited' symptom with onset outside the specified period of follow-up for solicited symptoms is to be reported as an unsolicited AE.","timeFrame":"Within 30 days post-study intervention administration (i.e., the day of vaccination and 29 subsequent days, vaccine administered on Day 1 for all groups and Day 30-60 for RSV_IC_2)"},{"measure":"Percentage of participants with serious adverse events (SAEs)","description":"A SAE is any untoward medical occurrence that results in death, is life-threatening, requires hospitalization or prolongation of existing hospitalization, results in disability/incapacity or is a congenital anomaly/birth defect in the offspring of a study participant.","timeFrame":"From Day 1 up to study end (Day 350-380 post last dose, vaccine administered on Day 1 for all groups and Day 30-60 for RSV_IC_2)"},{"measure":"Percentage of participants with any serious adverse events (SAEs), SAEs related to study intervention and fatal SAEs","description":"A SAE is any untoward medical occurrence that results in death, is life-threatening, requires hospitalization or prolongation of existing hospitalization, results in disability/incapacity or is a congenital anomaly/birth defect in the offspring of a study participant.","timeFrame":"From Day 1 up to study end (Day 350-380 post last dose, vaccine administered on Day 1 for all groups and Day 30-60 for RSV_IC_2)"},{"measure":"Percentage of participants with any potential immune-mediated disease (pIMDs) and pIMDs related to study intervention","description":"Potential immune-mediated diseases (pIMDs) are a subset of AEs of special interest (AESIs) that include autoimmune diseases and other inflammatory and/or neurologic disorders of interest which may or may not have an autoimmune etiology.","timeFrame":"From Day 1 up to study end (Day 350-380 post last dose, vaccine administered on Day 1 for all groups and Day 30-60 for RSV_IC_2)"},{"measure":"Percentage of participants with any AESIs","description":"AESIs are AEs of special interest. Along with pIMDs, they include also the acute rejection (specific to renal and lung SOT patients) and Atrial fibrillation (AF).","timeFrame":"From Day 1 up to study end (Day 350-380 post last dose, vaccine administered on Day 1 for all groups and Day 30-60 for RSV_IC_2)"}]},"eligibilityModule":{"eligibilityCriteria":"Inclusion Criteria:\n\nParticipants who, in the opinion of the investigator, can and will comply with the requirements of the protocol\n\n* Participants living in the general community or in an assisted-living facility that provides minimal assistance can be enrolled, such that the participant is primarily responsible for self-care and activities of daily living.\n* Written or witnessed informed consent obtained from the participant prior to performance of any study-specific procedure.\n* A male or female, ≥50 YoA at the time of signing the Informed consent form (ICF).\n* Female participants of nonchildbearing potential may be enrolled in the study. Non-childbearing potential is defined as hysterectomy, bilateral oophorectomy, bilateral salpingectomy, and post-menopause.\n* Female participants of childbearing potential may be enrolled in the study if the participant has practiced adequate contraception from 1 month prior to study intervention administration and agreed to continue adequate contraception until study end for this study, and has a negative pregnancy test on the day of and prior to study intervention administration.\n\nSpecific inclusion criteria for renal/lung transplant patients:\n\n* Participant who has received an ABO compatible allogeneic renal or lung transplant (allograft) more than 12 months (365 days) prior to the first study intervention administration.\n* Participant receiving maintenance immunosuppressive therapy for the prevention of allograft rejection.\n\nSpecific inclusion criteria for renal transplant (RTx) patients:\n\n• Participant with stable renal function, stability defined as less than 20% variability between last two results of eGFR or in the opinion of the investigator after investigator review of more than the last two results of eGFRs and based on medical history.\n\nSpecific inclusion criteria for lung transplant (LTx) patients:\n\n• Participant with stable lung function, with stability defined as the stability in the FEV1 compared to post-transplant baseline FEV1 and based on medical history of the last 3 months, in the opinion of the investigator.\n\nSpecific inclusion criteria for healthy participants:\n\n* Healthy participants as established by medical history and clinical examination before entering the study.\n* Participants who are medically stable in the opinion of the investigator at the time of first study intervention administration.\n* Participants with chronic stable medical conditions with or without specific treatment, such as diabetes mellitus, hypertension, or cardiac disease, are allowed to participate in this study if considered by the investigator as medically stable.\n\nExclusion Criteria:\n\nMedical conditions:\n\n* History of any reaction/ hypersensitivity likely to be exacerbated by any component of the study intervention.\n* Acute or chronic clinically significant cardiovascular or hepatic functional abnormality as determined by physical examination or laboratory screening tests.\n* Recurrent/uncontrolled neurological disorders or seizures. Participants with medically controlled chronic neurological diseases can be enrolled in the study if their condition will allow them to comply with the requirements of the protocol, with the help of a caregiver if needed.\n* Any history of dementia or any medical condition that moderately or severely impairs cognition.\n* Significant underlying illness that would prevent completion of the study).\n* Acute disease and/or fever at the time of study intervention administration (≥ 38°C /100.4°F, oral or axillary). However, participants with a minor illness without fever may be enrolled at the discretion of the investigator.\n* Bedridden participants.\n\nPrior/Concomitant therapy:\n\n* Use of any other investigational or non-registered product (drug, vaccine, or medical device) up to 30 days before the first dose administration (Day -30 to Day 1), or their planned use during the study period (up to Visit 6).\n* Previous vaccination with the study antigen (RSV), including investigational RSV vaccines.\n* Unexpected vaccine administration during a study should not occur 30 days prior to the first dose or 30 days after the last dose. For COVID-19 and inactivated/subunit/split influenza vaccines, this window is shortened to 14 days.\n\nPrior/Concurrent clinical study experience:\n\n• Concurrently participating in another active clinical study\n\nOther exclusion criteria:\n\n* Pregnant or lactating female participant.\n* Female participant planning to become pregnant or planning to discontinue contraceptive precautions.\n* History of chronic alcohol consumption and/or drug abuse\n* Participation of any study personnel or their immediate dependents.\n* Planned move during the study period that will prohibit participating in the study until study end.\n\nSpecific exclusion criteria for renal/lung transplant patients:\n\n* More than one organ transplanted. Dual organ is allowed (double kidney or double lung).\n* History of events that may put the participant at increased risk for chronic allograft dysfunction.\n* Participant with an episode of allograft rejection over the previous 90 days prior to the first study intervention administration.\n* Histologic evidence of chronic allograft injury.\n* Active treatment for acute rejection.\n* Current diagnosis of malignancy (except non-melanoma skin cancer that does not require systemic therapy).\n* Any autoimmune conditions or pIMDs that may put the participant at increased risk.\n* Any confirmed or suspected HIV infection, primary immunodeficiency disease or ongoing CMV infection with a viremia \\> 200 IU/mL.\n* Use of anti-CD20 or other B-cell monoclonal antibody agents for the prevention of allograft rejection within 274 days of first dose of study.\n* Use of investigational and non-registered immunosuppressants at the local/country level, unless specifically prescribed for the prevention of allograft rejection, and which are in process of approval, approved in other countries and locally available.\n* Evidence/high suspicion of noncompliance/nonadherence to use of induction and/or maintenance immunosuppressive therapies.\n* Any clinically significant hematologic and/or biochemical laboratory abnormality.\n\nSpecific exclusion criteria for renal transplant (RTx) patients:\n\n* Previous allograft loss secondary to recurrent primary kidney disease. Multiple consecutive kidney transplants are allowed if the reason is not recurrent primary kidney disease.\n* Evidence of significant proteinuria/albuminuria.\n\nSpecific exclusion criteria for lung transplant (LTx) patients:\n\n* At study intervention administration visit, diagnosis of documented acute pulmonary infection within the 2 prior weeks.\n* Patients with diagnosis of chronic lung allograft dysfunction (decrement of 20% or more in FEV1 compared to post-transplant baseline FEV1).\n\nSpecific exclusion criteria for healthy participants:\n\n* Any confirmed/suspected immunosuppressive/immunodeficient condition resulting from disease or immunosuppressive/cytotoxic therapy, based on medical history and physical examination.\n* Unstable serious chronic illness.\n* Chronic administration of immune-modifying drugs (\\>14 days in total) and/or administration of long-acting immune-modifying treatments or planned administration at any time up to the end of the study.\n\n  * Up to 3 months prior to the study intervention administration:\n  * For corticosteroids -prednisone equivalent ≥20 mg/day, or equivalent. Inhaled, topical and intra-articular steroids are allowed.\n  * Administration of immunoglobulins and/or any blood products or plasma derivatives.\n  * Up to 6 months prior to study intervention administration: long-acting immune-modifying drugs.","healthyVolunteers":true,"sex":"ALL","minimumAge":"50 Years","stdAges":["ADULT","OLDER_ADULT"]},"contactsLocationsModule":{"centralContacts":[{"name":"US GSK Clinical Trials Call Center","role":"CONTACT","phone":"877-379-3718","email":"GSKClinicalSupportHD@gsk.com"},{"name":"EU GSK Clinical Trials Call Center","role":"CONTACT","phone":"+44 (0) 20 89904466","email":"GSKClinicalSupportHD@gsk.com"}],"locations":[{"facility":"GSK Investigational Site","city":"Phoenix","state":"Arizona","zip":"85013","country":"United States","geoPoint":{"lat":33.44838,"lon":-112.07404}},{"facility":"GSK Investigational Site","city":"Chicago","state":"Illinois","zip":"60612","country":"United States","geoPoint":{"lat":41.85003,"lon":-87.65005}},{"facility":"GSK Investigational Site","city":"Iowa City","state":"Iowa","zip":"52242","country":"United States","geoPoint":{"lat":41.66113,"lon":-91.53017}},{"facility":"GSK Investigational Site","city":"Lexington","state":"Kentucky","zip":"40536","country":"United States","geoPoint":{"lat":37.98869,"lon":-84.47772}},{"facility":"GSK investigational Site","city":"Minneapolis","state":"Minnesota","zip":"55455","country":"United States","geoPoint":{"lat":44.97997,"lon":-93.26384}},{"facility":"GSK Investigational Site","city":"Saint Louis","state":"Missouri","zip":"63110","country":"United States","geoPoint":{"lat":38.62727,"lon":-90.19789}},{"facility":"GSK Investigational Site","city":"Omaha","state":"Nebraska","zip":"68198","country":"United States","geoPoint":{"lat":41.25626,"lon":-95.94043}},{"facility":"GSK Investigational Site","city":"New York","state":"New York","zip":"10032","country":"United States","geoPoint":{"lat":40.71427,"lon":-74.00597}},{"facility":"GSK Investigational Site","city":"New York","state":"New York","zip":"10065","country":"United States","geoPoint":{"lat":40.71427,"lon":-74.00597}},{"facility":"GSK Investigational Site","city":"Pittsburgh","state":"Pennsylvania","zip":"15213","country":"United States","geoPoint":{"lat":40.44062,"lon":-79.99589}},{"facility":"GSK Investigational Site","city":"Dallas","state":"Texas","zip":"76502","country":"United States","geoPoint":{"lat":32.78306,"lon":-96.80667}},{"facility":"GSK Investigational Site","city":"Birtinya","state":"Queensland","zip":"4556","country":"Australia","geoPoint":{"lat":-26.74322,"lon":153.11913}},{"facility":"GSK Investigational Site","city":"Herston","state":"Queensland","zip":"4029","country":"Australia","geoPoint":{"lat":-27.44453,"lon":153.01852}},{"facility":"GSK Investigational Site","city":"Woolloongabba","state":"Queensland","zip":"4102","country":"Australia","geoPoint":{"lat":-27.48855,"lon":153.03655}},{"facility":"GSK Investigational Site","city":"Adelaide","state":"South Australia","zip":"5000","country":"Australia","geoPoint":{"lat":-34.92866,"lon":138.59863}},{"facility":"GSK Investigational Site","city":"Nedlands","state":"Western Australia","zip":"6009","country":"Australia","geoPoint":{"lat":-31.98184,"lon":115.8073}},{"facility":"GSK Investigational Site","city":"Edmonton","state":"Alberta","zip":"T6G 2B7","country":"Canada","geoPoint":{"lat":53.55014,"lon":-113.46871}},{"facility":"GSK Investigational Site","city":"Vancouver","state":"British Columbia","zip":"V5Z 1M9","country":"Canada","geoPoint":{"lat":49.24966,"lon":-123.11934}},{"facility":"GSK Investigational Site","city":"London","state":"Ontario","zip":"N6A 5A5","country":"Canada","geoPoint":{"lat":42.98339,"lon":-81.23304}},{"facility":"GSK Investigational Site","city":"Toronto","state":"Ontario","zip":"M5G 2N2","country":"Canada","geoPoint":{"lat":43.70011,"lon":-79.4163}},{"facility":"GSK Investigational Site","city":"Montreal","state":"Quebec","zip":"H2X 3H9","country":"Canada","geoPoint":{"lat":45.50884,"lon":-73.58781}},{"facility":"GSK Investigational Site","city":"Sherbrooke","state":"Quebec","zip":"J1J 2G2","country":"Canada","geoPoint":{"lat":45.40008,"lon":-71.89908}},{"facility":"GSK Investigational Site","city":"Heidelberg","state":"Baden-Wuerttemberg","zip":"69120","country":"Germany","geoPoint":{"lat":49.40768,"lon":8.69079}},{"facility":"GSK Investigational Site","city":"Giessen","state":"Hessen","zip":"35392","country":"Germany","geoPoint":{"lat":50.58727,"lon":8.67554}},{"facility":"GSK Investigational Site","city":"Kaiserslautern","state":"Rheinland-Pfalz","zip":"67655","country":"Germany","geoPoint":{"lat":49.443,"lon":7.77161}},{"facility":"GSK Investigational Site","city":"Milano","state":"Lombardia","zip":"20122","country":"Italy","geoPoint":{"lat":45.46427,"lon":9.18951}},{"facility":"GSK Investigational Site","city":"Milano","state":"Lombardia","zip":"20132","country":"Italy","geoPoint":{"lat":45.46427,"lon":9.18951}},{"facility":"GSK Investigational Site","city":"Pavia","state":"Lombardia","zip":"27100","country":"Italy","geoPoint":{"lat":45.19205,"lon":9.15917}},{"facility":"GSK Investigational Site","city":"Palermo","state":"Sicilia","zip":"90127","country":"Italy","geoPoint":{"lat":38.13205,"lon":13.33561}},{"facility":"GSK Investigational Site","city":"Siena","state":"Toscana","zip":"53100","country":"Italy","geoPoint":{"lat":43.31822,"lon":11.33064}},{"facility":"GSK Investigational Site","city":"Aichi","zip":"466-8650","country":"Japan","geoPoint":{"lat":32.51879,"lon":130.62158}},{"facility":"GSK Investigational Site","city":"Aichi","zip":"470-1192","country":"Japan","geoPoint":{"lat":32.51879,"lon":130.62158}},{"facility":"GSK Investigational Site","city":"Fukuoka","zip":"814-0180","country":"Japan","geoPoint":{"lat":33.6,"lon":130.41667}},{"facility":"GSK investigational Site","city":"Hyogo","zip":"662-0918","country":"Japan"},{"facility":"GSK Investigational Site","city":"Kumamoto","zip":"861-8520","country":"Japan","geoPoint":{"lat":32.80589,"lon":130.69182}},{"facility":"GSK Investigational Site","city":"Kyoto","zip":"606-8507","country":"Japan","geoPoint":{"lat":35.02107,"lon":135.75385}},{"facility":"GSK Investigational Site","city":"Okayama","zip":"700-8558","country":"Japan","geoPoint":{"lat":34.65,"lon":133.93333}},{"facility":"GSK Investigational Site","city":"Tokyo","zip":"160-0017","country":"Japan","geoPoint":{"lat":35.6895,"lon":139.69171}},{"facility":"GSK Investigational Site","city":"Tokyo","zip":"193-0998","country":"Japan","geoPoint":{"lat":35.6895,"lon":139.69171}},{"facility":"GSK Investigational Site","city":"Seoul","state":"Korea","zip":"03722","country":"Korea, Republic of","geoPoint":{"lat":37.566,"lon":126.9784}},{"facility":"GSK Investigational Site","city":"Seoul","state":"Korea","zip":"110-774","country":"Korea, Republic of","geoPoint":{"lat":37.566,"lon":126.9784}},{"facility":"GSK Investigational Site","city":"Seoul","state":"Korea","zip":"138-736","country":"Korea, Republic of","geoPoint":{"lat":37.566,"lon":126.9784}},{"facility":"GSK Investigational Site","city":"Santander","state":"Cantabria","zip":"39011","country":"Spain","geoPoint":{"lat":43.46472,"lon":-3.80444}},{"facility":"GSK Investigational Site","city":"Barcelona","state":"Catalonia","zip":"08907","country":"Spain","geoPoint":{"lat":41.38879,"lon":2.15899}},{"facility":"GSK Investigational Site","city":"A Coruna","state":"Coruna","zip":"15006","country":"Spain","geoPoint":{"lat":43.37135,"lon":-8.396}},{"facility":"GSK Investigational Site","city":"Majadahonda","state":"Madrid","zip":"28222","country":"Spain","geoPoint":{"lat":40.47353,"lon":-3.87182}},{"facility":"GSK Investigational Site","city":"Barcelona","zip":"08036","country":"Spain","geoPoint":{"lat":41.38879,"lon":2.15899}},{"facility":"GSK Investigational Site","city":"Córdoba","zip":"14004","country":"Spain","geoPoint":{"lat":37.89155,"lon":-4.77275}},