[
{"protocolSection":{"identificationModule":{"nctId":"NCT02663973","orgStudyIdInfo":{"id":"GBECAM 0115"},"organization":{"fullName":"Latin American Cooperative Oncology Group","class":"OTHER"},"briefTitle":"Prospective Evaluation of Breast Cancer at Brazilian Institutions - Project AMAZONA III","officialTitle":"Prospective Evaluation of Breast Cancer at Brazilian Institutions - Project AMAZONA III"},"statusModule":{"statusVerifiedDate":"2021-06","overallStatus":"COMPLETED","expandedAccessInfo":{"hasExpandedAccess":false},"startDateStruct":{"date":"2016-01-01"},"primaryCompletionDateStruct":{"date":"2020-06-15","type":"ACTUAL"},"completionDateStruct":{"date":"2021-04-01","type":"ACTUAL"},"studyFirstSubmitDate":"2016-01-19","studyFirstSubmitQcDate":"2016-01-25","studyFirstPostDateStruct":{"date":"2016-01-26","type":"ESTIMATED"},"lastUpdateSubmitDate":"2021-06-14","lastUpdatePostDateStruct":{"date":"2021-06-15","type":"ACTUAL"}},"sponsorCollaboratorsModule":{"responsibleParty":{"type":"SPONSOR"},"leadSponsor":{"name":"Latin American Cooperative Oncology Group","class":"OTHER"},"collaborators":[{"name":"Ministry of Health, Brazil","class":"OTHER_GOV"},{"name":"Avon Institute","class":"UNKNOWN"}]},"oversightModule":{"oversightHasDmc":false},"descriptionModule":{"briefSummary":"The principal goal of this study is to describe the epidemiology of breast cancer in the Brazilian population","detailedDescription":"The principal goal of this study is to describe the epidemiology of breast cancer in the Brazilian population. Other specific goals are:\n\n* To evaluate the demographic and socio-demographic profile, comorbidities and reproductive risks, anthropometric profile and family history.\n* Characterize the breast tumors immunophenotype through anatomopathological data, such as: tumor grade, estrogen receptor, progesterone receptor, HER2, Ki67.\n* Describe the screening tests, main symptoms and cancer stage in the moment of the diagnosis.\n* Describe the initial cancer treatment and locally advanced such as surgery, radiotherapy, chemotherapy and endocrine therapy.\n* Describe palliative treatment for recurrent or metastatic breast cancer: chemotherapy, radiotherapy, biphosphonate, and others.\n* Evaluate the clinical outcomes such as: local or diffuse relapse, period of time until progression to metastatic cancer, global lifespan and specific breast cancer lifespan.\n* Evaluate clinical complications of the metastatic disease, such as: brain metastasis, spinal cord compression, skeletal related events.\n* Analyze the demographical and socio-economical characteristics, clinical-pathological characteristics of the tumor, treatment, clinical outcomes, type of institution (private/public), and other factors that may impact clinical outcome."},"conditionsModule":{"conditions":["Breast Cancer"],"keywords":["Breast cancer"]},"designModule":{"studyType":"OBSERVATIONAL","patientRegistry":false,"designInfo":{"observationalModel":"CASE_ONLY","timePerspective":"PROSPECTIVE"},"enrollmentInfo":{"count":3000,"type":"ACTUAL"}},"outcomesModule":{"primaryOutcomes":[{"measure":"Description of the epidemiology of breast cancer in the Brazilian population","timeFrame":"Annually, during 5 years"}],"secondaryOutcomes":[{"measure":"Description of the socioeconomical characteristics of the Brazilian population with breast cancer","timeFrame":"Annually, during 5 years"},{"measure":"Characterization of the immunophenotypic markers of the tumor","description":"estrogen receptor, progesterone receptor, HER2, Ki67","timeFrame":"Annually, during 5 years"},{"measure":"Classification of breast cancer staging","timeFrame":"Annually, during 5 years"},{"measure":"Description of screening tests of breast cancer patients in Brazil","timeFrame":"Annually, during 5 years"},{"measure":"Main symptoms presented by patients with breast cancer in Brazil","timeFrame":"Annually, during 5 years"},{"measure":"Initial treatment for breast cancer of Brazilian patients","timeFrame":"Annually, during 5 years"},{"measure":"Type of palliative treatment for metastasis or recurrent breast cancer in Brazilian patients","timeFrame":"Annually, during 5 years"},{"measure":"Clinical outcome of Brazilian breast cancer patients","timeFrame":"Annually, during 5 years"},{"measure":"Types of clinical complications displayed by breast cancer Brazilian patients","timeFrame":"Annually, during 5 years"},{"measure":"Characterization of exterior factors that may impact clinical outcome of breast cancer Brazilian patients","timeFrame":"Annually, during 5 years"}]},"eligibilityModule":{"eligibilityCriteria":"Inclusion Criteria:\n\n* Woman ≥ 18 years old\n* Invasive breast cancer stage I to IV proven by histology or cytology\n* Patients with new pathological diagnosis of invasive primary BC after the site activation date\n* Pathological diagnosis of invasive breast cancer during recruitment (6 months before center activation or until 3000 patients included)\n* New primary cancer on the same breast or contralateral breast.\n* Patient's medical chart is available and adequate for data collection\n* Patient properly signed the informed consent form","healthyVolunteers":false,"sex":"FEMALE","minimumAge":"18 Years","stdAges":["ADULT","OLDER_ADULT"],"studyPopulation":"Woman ≥ 18 years old with recent diagnosis of breast cancer","samplingMethod":"NON_PROBABILITY_SAMPLE"},"contactsLocationsModule":{"overallOfficials":[{"name":"Gustavo Werutsky, MD","affiliation":"Latin American Cooperative Oncology Group","role":"STUDY_DIRECTOR"}],"locations":[{"facility":"Clínica AMO","city":"Salvador","state":"Bahia","country":"Brazil","geoPoint":{"lat":-12.97111,"lon":-38.51083}},{"facility":"Núcleo de Oncologia da Bahia","city":"Salvador","state":"Bahia","country":"Brazil","geoPoint":{"lat":-12.97111,"lon":-38.51083}},{"facility":"Centro Regional Integrado de Oncologia (CRIO)","city":"Fortaleza","state":"Ceará","country":"Brazil","geoPoint":{"lat":-3.71722,"lon":-38.54306}},{"facility":"Centro de Pesquisa do Setor de Ginecologia e Mama do Hospital Araújo Jorge","city":"Goiânia","state":"Goiás","country":"Brazil","geoPoint":{"lat":-16.67861,"lon":-49.25389}},{"facility":"Unidade de Pesquisa Clínica/Hospital de Clínicas da UFG","city":"Goiânia","state":"Goiás","country":"Brazil","geoPoint":{"lat":-16.67861,"lon":-49.25389}},{"facility":"Unidade de Pesquisa Clínica do Hospital do Câncer de Londrina","city":"Londrina","state":"Paraná","country":"Brazil","geoPoint":{"lat":-23.31028,"lon":-51.16278}},{"facility":"Hospital Jardim Amália","city":"Volta Redonda","state":"Rio De Janeiro","country":"Brazil","geoPoint":{"lat":-22.52306,"lon":-44.10417}},{"facility":"Centro de Pesquisa Clínica da Liga Norte Riograndense Contra o Câncer","city":"Natal","state":"Rio Grande Do Norte","country":"Brazil","geoPoint":{"lat":-5.795,"lon":-35.20944}},{"facility":"Centro de Pesquisas da Serra Gaúcha","city":"Caxias do Sul","state":"Rio Grande Do Sul","country":"Brazil","geoPoint":{"lat":-29.16806,"lon":-51.17944}},{"facility":"Instituto de Pesquisa Clínicas para Estudos Multicêntricos da UCS","city":"Caxias do Sul","state":"Rio Grande Do Sul","country":"Brazil","geoPoint":{"lat":-29.16806,"lon":-51.17944}},{"facility":"Hospital da Cidade de Passo Fundo - Clínica CITO","city":"Passo Fundo","state":"Rio Grande Do Sul","country":"Brazil","geoPoint":{"lat":-28.26278,"lon":-52.40667}},{"facility":"Hospital São Vicente de Paulo","city":"Passo Fundo","state":"Rio Grande Do Sul","country":"Brazil","geoPoint":{"lat":-28.26278,"lon":-52.40667}},{"facility":"Grupo de Estudos em Pesquisa de Pelotas","city":"Pelotas","state":"Rio Grande Do Sul","country":"Brazil","geoPoint":{"lat":-31.77194,"lon":-52.3425}},{"facility":"CPO - Pucrs","city":"Porto Alegre","state":"Rio Grande Do Sul","country":"Brazil","geoPoint":{"lat":-30.03306,"lon":-51.23}},{"facility":"Hospital Moinhos de Vento","city":"Porto Alegre","state":"Rio Grande Do Sul","country":"Brazil","geoPoint":{"lat":-30.03306,"lon":-51.23}},{"facility":"Novos Tratamentos em Câncer - Hospital Santa Casa de Porto Alegre","city":"Porto Alegre","state":"Rio Grande Do Sul","country":"Brazil","geoPoint":{"lat":-30.03306,"lon":-51.23}},{"facility":"CEPON","city":"Florianópolis","state":"Santa Catarina","country":"Brazil","geoPoint":{"lat":-27.59667,"lon":-48.54917}},{"facility":"Clínica de Neoplasias Litoral - Centro de Novos Tratamentos Itajaí","city":"Itajaí","state":"Santa Catarina","country":"Brazil","geoPoint":{"lat":-26.90778,"lon":-48.66194}},{"facility":"Instituto Oncológico de Ribeirão Preto - InORP","city":"Ribeirão Preto","state":"São Paulo","country":"Brazil","geoPoint":{"lat":-21.1775,"lon":-47.81028}},{"facility":"Instituto Nacional do Câncer","city":"Rio de Janeiro","country":"Brazil","geoPoint":{"lat":-22.90278,"lon":-43.2075}},{"facility":"Oncoclínica","city":"Rio de Janeiro","country":"Brazil","geoPoint":{"lat":-22.90278,"lon":-43.2075}},{"facility":"Centro de Pesquisa Clínica do Hospital Israelita Albert Einstein","city":"São Paulo","country":"Brazil","geoPoint":{"lat":-23.5475,"lon":-46.63611}},{"facility":"Centro de Pesquisa Instituto do Câncer Arnaldo Vieira de Carvalho","city":"São Paulo","country":"Brazil","geoPoint":{"lat":-23.5475,"lon":-46.63611}},{"facility":"Hospital AC Camargo","city":"São Paulo","country":"Brazil","geoPoint":{"lat":-23.5475,"lon":-46.63611}}],"locations_nested":[{"facility":"Clínica AMO","city":"Salvador","state":"Bahia","country":"Brazil","geoPoint":{"lat":-12.97111,"lon":-38.51083}},{"facility":"Núcleo de Oncologia da Bahia","city":"Salvador","state":"Bahia","country":"Brazil","geoPoint":{"lat":-12.97111,"lon":-38.51083}},{"facility":"Centro Regional Integrado de Oncologia (CRIO)","city":"Fortaleza","state":"Ceará","country":"Brazil","geoPoint":{"lat":-3.71722,"lon":-38.54306}},{"facility":"Centro de Pesquisa do Setor de Ginecologia e Mama do Hospital Araújo Jorge","city":"Goiânia","state":"Goiás","country":"Brazil","geoPoint":{"lat":-16.67861,"lon":-49.25389}},{"facility":"Unidade de Pesquisa Clínica/Hospital de Clínicas da UFG","city":"Goiânia","state":"Goiás","country":"Brazil","geoPoint":{"lat":-16.67861,"lon":-49.25389}},{"facility":"Unidade de Pesquisa Clínica do Hospital do Câncer de Londrina","city":"Londrina","state":"Paraná","country":"Brazil","geoPoint":{"lat":-23.31028,"lon":-51.16278}},{"facility":"Hospital Jardim Amália","city":"Volta Redonda","state":"Rio De Janeiro","country":"Brazil","geoPoint":{"lat":-22.52306,"lon":-44.10417}},{"facility":"Centro de Pesquisa Clínica da Liga Norte Riograndense Contra o Câncer","city":"Natal","state":"Rio Grande Do Norte","country":"Brazil","geoPoint":{"lat":-5.795,"lon":-35.20944}},{"facility":"Centro de Pesquisas da Serra Gaúcha","city":"Caxias do Sul","state":"Rio Grande Do Sul","country":"Brazil","geoPoint":{"lat":-29.16806,"lon":-51.17944}},{"facility":"Instituto de Pesquisa Clínicas para Estudos Multicêntricos da UCS","city":"Caxias do Sul","state":"Rio Grande Do Sul","country":"Brazil","geoPoint":{"lat":-29.16806,"lon":-51.17944}},{"facility":"Hospital da Cidade de Passo Fundo - Clínica CITO","city":"Passo Fundo","state":"Rio Grande Do Sul","country":"Brazil","geoPoint":{"lat":-28.26278,"lon":-52.40667}},{"facility":"Hospital São Vicente de Paulo","city":"Passo Fundo","state":"Rio Grande Do Sul","country":"Brazil","geoPoint":{"lat":-28.26278,"lon":-52.40667}},{"facility":"Grupo de Estudos em Pesquisa de Pelotas","city":"Pelotas","state":"Rio Grande Do Sul","country":"Brazil","geoPoint":{"lat":-31.77194,"lon":-52.3425}},{"facility":"CPO - Pucrs","city":"Porto Alegre","state":"Rio Grande Do Sul","country":"Brazil","geoPoint":{"lat":-30.03306,"lon":-51.23}},{"facility":"Hospital Moinhos de Vento","city":"Porto Alegre","state":"Rio Grande Do Sul","country":"Brazil","geoPoint":{"lat":-30.03306,"lon":-51.23}},{"facility":"Novos Tratamentos em Câncer - Hospital Santa Casa de Porto Alegre","city":"Porto Alegre","state":"Rio Grande Do Sul","country":"Brazil","geoPoint":{"lat":-30.03306,"lon":-51.23}},{"facility":"CEPON","city":"Florianópolis","state":"Santa Catarina","country":"Brazil","geoPoint":{"lat":-27.59667,"lon":-48.54917}},{"facility":"Clínica de Neoplasias Litoral - Centro de Novos Tratamentos Itajaí","city":"Itajaí","state":"Santa Catarina","country":"Brazil","geoPoint":{"lat":-26.90778,"lon":-48.66194}},{"facility":"Instituto Oncológico de Ribeirão Preto - InORP","city":"Ribeirão Preto","state":"São Paulo","country":"Brazil","geoPoint":{"lat":-21.1775,"lon":-47.81028}},{"facility":"Instituto Nacional do Câncer","city":"Rio de Janeiro","country":"Brazil","geoPoint":{"lat":-22.90278,"lon":-43.2075}},{"facility":"Oncoclínica","city":"Rio de Janeiro","country":"Brazil","geoPoint":{"lat":-22.90278,"lon":-43.2075}},{"facility":"Centro de Pesquisa Clínica do Hospital Israelita Albert Einstein","city":"São Paulo","country":"Brazil","geoPoint":{"lat":-23.5475,"lon":-46.63611}},{"facility":"Centro de Pesquisa Instituto do Câncer Arnaldo Vieira de Carvalho","city":"São Paulo","country":"Brazil","geoPoint":{"lat":-23.5475,"lon":-46.63611}},{"facility":"Hospital AC Camargo","city":"São Paulo","country":"Brazil","geoPoint":{"lat":-23.5475,"lon":-46.63611}}]},"referencesModule":{"references":[{"pmid":"25467588","type":"BACKGROUND","citation":"Allemani C, Weir HK, Carreira H, Harewood R, Spika D, Wang XS, Bannon F, Ahn JV, Johnson CJ, Bonaventure A, Marcos-Gragera R, Stiller C, Azevedo e Silva G, Chen WQ, Ogunbiyi OJ, Rachet B, Soeberg MJ, You H, Matsuda T, Bielska-Lasota M, Storm H, Tucker TC, Coleman MP; CONCORD Working Group. Global surveillance of cancer survival 1995-2009: analysis of individual data for 25,676,887 patients from 279 population-based registries in 67 countries (CONCORD-2). Lancet. 2015 Mar 14;385(9972):977-1010. doi: 10.1016/S0140-6736(14)62038-9. Epub 2014 Nov 26. Erratum In: Lancet. 2015 Mar 14;385(9972):946."},{"pmid":"22892915","type":"BACKGROUND","citation":"Freitas-Junior R, Gonzaga CM, Freitas NM, Martins E, Dardes Rde C. Disparities in female breast cancer mortality rates in Brazil between 1980 and 2009. Clinics (Sao Paulo). 2012 Jul;67(7):731-7. doi: 10.6061/clinics/2012(07)05."},{"pmid":"24503143","type":"BACKGROUND","citation":"Gonzaga CM, Freitas-Junior R, Souza MR, Curado MP, Freitas NM. Disparities in female breast cancer mortality rates between urban centers and rural areas of Brazil: ecological time-series study. Breast. 2014 Apr;23(2):180-7. doi: 10.1016/j.breast.2014.01.006. Epub 2014 Feb 4."},{"pmid":"25224496","type":"BACKGROUND","citation":"Palmer JR, Viscidi E, Troester MA, Hong CC, Schedin P, Bethea TN, Bandera EV, Borges V, McKinnon C, Haiman CA, Lunetta K, Kolonel LN, Rosenberg L, Olshan AF, Ambrosone CB. Parity, lactation, and breast cancer subtypes in African American women: results from the AMBER Consortium. J Natl Cancer Inst. 2014 Sep 15;106(10):dju237. doi: 10.1093/jnci/dju237. Print 2014 Oct."},{"pmid":"21346227","type":"BACKGROUND","citation":"Phipps AI, Chlebowski RT, Prentice R, McTiernan A, Wactawski-Wende J, Kuller LH, Adams-Campbell LL, Lane D, Stefanick ML, Vitolins M, Kabat GC, Rohan TE, Li CI. Reproductive history and oral contraceptive use in relation to risk of triple-negative breast cancer. J Natl Cancer Inst. 2011 Mar 16;103(6):470-7. doi: 10.1093/jnci/djr030. Epub 2011 Feb 23."},{"pmid":"24477977","type":"BACKGROUND","citation":"Anderson KN, Schwab RB, Martinez ME. Reproductive risk factors and breast cancer subtypes: a review of the literature. Breast Cancer Res Treat. 2014 Feb;144(1):1-10. doi: 10.1007/s10549-014-2852-7. Epub 2014 Jan 30."},{"pmid":"17716297","type":"BACKGROUND","citation":"Vona-Davis L, Howard-McNatt M, Rose DP. Adiposity, type 2 diabetes and the metabolic syndrome in breast cancer. Obes Rev. 2007 Sep;8(5):395-408. doi: 10.1111/j.1467-789X.2007.00396.x."},{"pmid":"12711737","type":"BACKGROUND","citation":"Calle EE, Rodriguez C, Walker-Thurmond K, Thun MJ. Overweight, obesity, and mortality from cancer in a prospectively studied cohort of U.S. adults. N Engl J Med. 2003 Apr 24;348(17):1625-38. doi: 10.1056/NEJMoa021423."},{"pmid":"17986716","type":"BACKGROUND","citation":"Reeves GK, Pirie K, Beral V, Green J, Spencer E, Bull D; Million Women Study Collaboration. Cancer incidence and mortality in relation to body mass index in the Million Women Study: cohort study. BMJ. 2007 Dec 1;335(7630):1134. doi: 10.1136/bmj.39367.495995.AE. Epub 2007 Nov 6."},{"pmid":"17855698","type":"BACKGROUND","citation":"Cleveland RJ, Eng SM, Abrahamson PE, Britton JA, Teitelbaum SL, Neugut AI, Gammon MD. Weight gain prior to diagnosis and survival from breast cancer. Cancer Epidemiol Biomarkers Prev. 2007 Sep;16(9):1803-11. doi: 10.1158/1055-9965.EPI-06-0889."},{"pmid":"21472708","type":"BACKGROUND","citation":"Anders CK, Deal AM, Miller CR, Khorram C, Meng H, Burrows E, Livasy C, Fritchie K, Ewend MG, Perou CM, Carey LA. The prognostic contribution of clinical breast cancer subtype, age, and race among patients with breast cancer brain metastases. Cancer. 2011 Apr 15;117(8):1602-11. doi: 10.1002/cncr.25746. Epub 2010 Nov 29."},{"pmid":"10963602","type":"BACKGROUND","citation":"Perou CM, Sorlie T, Eisen MB, van de Rijn M, Jeffrey SS, Rees CA, Pollack JR, Ross DT, Johnsen H, Akslen LA, Fluge O, Pergamenschikov A, Williams C, Zhu SX, Lonning PE, Borresen-Dale AL, Brown PO, Botstein D. Molecular portraits of human breast tumours. Nature. 2000 Aug 17;406(6797):747-52. doi: 10.1038/35021093."},{"pmid":"24165578","type":"BACKGROUND","citation":"Liedke PE, Finkelstein DM, Szymonifka J, Barrios CH, Chavarri-Guerra Y, Bines J, Vasconcelos C, Simon SD, Goss PE. Outcomes of breast cancer in Brazil related to health care coverage: a retrospective cohort study. Cancer Epidemiol Biomarkers Prev. 2014 Jan;23(1):126-33. doi: 10.1158/1055-9965.EPI-13-0693. Epub 2013 Oct 28."},{"type":"BACKGROUND","citation":"Lohman TG, Roche AF, Martorell R. Anthropometric standardization reference manual. Illinois: A division of human Kinetics Publishers Inc, 1988."},{"pmid":"31730380","type":"DERIVED","citation":"Franzoi MA, Rosa DD, Zaffaroni F, Werutsky G, Simon S, Bines J, Barrios C, Cronemberger E, Queiroz GS, Cordeiro de Lima V, Junior RF, Couto J, Emerenciano K, Resende H, Crocamo S, Reinert T, Van Eyli B, Neron Y, Dybal V, Lazaretti N, de Cassia Costamillan R, Pinto de Andrade DA, Mathias C, Vacaro GZ, Borges G, Morelle A, Filho CAS, Mano M, Liedke PER. Advanced Stage at Diagnosis and Worse Clinicopathologic Features in Young Women with Breast Cancer in Brazil: A Subanalysis of the AMAZONA III Study (GBECAM 0115). J Glob Oncol. 2019 Nov;5:1-10. doi: 10.1200/JGO.19.00263."}],"seeAlsoLinks":[{"label":"World Health Organization. GLOBOCAN 2012: cancer incidence and mortality worldwide. Accessed in Jan 8 2015.","url":"http://globocan.iarc.fr/Pages/fact_sheets_population.aspx"},{"label":"National Cancer Institute. Cancer treatment. Accessed in Jan 8 2015.","url":"http://www.cancer.gov/cancertopics/treatment"}]},"ipdSharingStatementModule":{"ipdSharing":"UNDECIDED"}},"derivedSection":{"miscInfoModule":{"versionHolder":"2023-06-28","modelPredictions":{"bmiLimits":{"minBmi":0.00,"maxBmi":101.00}}},"conditionBrowseModule":{"meshes":[{"id":"D000001943","term":"Breast Neoplasms"}],"ancestors":[{"id":"D000009371","term":"Neoplasms by Site"},{"id":"D000009369","term":"Neoplasms"},{"id":"D000001941","term":"Breast Diseases"},{"id":"D000012871","term":"Skin Diseases"}],"browseLeaves":[{"id":"M4910","name":"Breast Neoplasms","asFound":"Breast Cancer","relevance":"HIGH"},{"id":"M4908","name":"Breast Diseases","relevance":"LOW"},{"id":"M15364","name":"Skin Diseases","relevance":"LOW"}],"browseBranches":[{"abbrev":"BC04","name":"Neoplasms"},{"abbrev":"BC17","name":"Skin and Connective Tissue Diseases"},{"abbrev":"All","name":"All Conditions"}]},"interventionBrowseModule":{}},"hasResults":false}
]